# LAS WORX (tm) v17.01.12 Header Hash (44511) Data Hash (251473119) DO NOT REMOVE THIS LINE
# Original File Owner: ANADARKO\gwm835 (User)
#
~VERSION INFORMATION SECTION
VERS. 2.0 : CWLS LOG ASCII STANDARD-VERSION 2.0
WRAP. NO  : ONE LINE PER DEPTH STEP
#
#MNEM UNIT         VALUE/NAME             DESCRIPTION  
#---- ---- --------------------------   ---------------
~WELL INFORMATION SECTION
STRT.F                     190.00000 : TOP DEPTH
STOP.F                   16132.00000 : BOTTOM DEPTH
STEP.F                       0.50000 : DEPTH INCREMENT
NULL.                       -999.250 : NULL VALUE
API .                 42495335780000 : WELL API
CNTY.                        WINKLER : COUNTY
COMP.                 XTO ENERGY INC : OPERATOR
EGL .                           2826 : GROUND LEVEL
EKB .                           2849 : KB ELEVATION
EPD .                            0.0 : ELEV PERM DATUM
FLD .                        WINKLER : FIELD NAME
LAT .                       31.73723 : SURF. LATITUDE
LMF .                             KB : LOGS MEAS FROM
LON .                     -103.26065 : SURF. LONGITUDE
SPUD.                     2014/09/13 : SPUD DATE
STAT.                             TX : STATE
UWI .                 42495335780000 : UWI
WELL.      UNIVERSITY BLOCK 21 1804H : NAME
#
# MNEM   UNIT   API CODES                     DESCRIPTION                 
#------- ---- -------------   --------------------------------------------
#=========                                        ========    == ===========
~CURVE INFORMATION SECTION
DEPT   .F     00 001 00 00 : 1  DEPTH
RAW_RESA34.OHMM               : 2  ARC ATTENUATION RESISTIVITY 34 INCH SPAC (Original mnemonic = A34H)
RAW_CALX.IN                 : 4  CALIPER FROM DENSITY LOG (Original mnemonic = CALD)
RAW_DRHO.G/CC               : 5  DENSITY CORRECTION (Original mnemonic = DCOR)
RAW_GR .GAPI               : 7  GAMMA RAY (Original mnemonic = GR)
RAW_GR .GAPI               : 8  GAMMA RAY FROM DENSITY LOG (Original mnemonic = GRD)
RAW_LLD.OHMM               : 9  LATEROLOG DEEP RESISTIVITY (Original mnemonic = LLD)
RAW_LLS.OHMM               : 10  LATEROLOG SHALLOW RESISTIVITY (Original mnemonic = LLS)
RAW_PEF.B/E                : 15  PHOTOELECTRIC CROSS SECTION (Original mnemonic = PE)
RAW_RHOB.G/CC               : 16  BULK DENSITY (Original mnemonic = RHOB)
#
#MNEM UNIT  VALUE/NAME         DESCRIPTION    
#---- ---- -------------   -------------------
~PARAMETERS INFORMATION SECTION
LNAM.         COMPOSITE : NAME
LTYP.          PURCHASE : LOG TYPE
LVSN.                 1 : LOG VERSION
BHT .DEGF          0723 : BH TEMP
BLI .FT        14211.92 : BOTTOM DEPTH LOGGED
BHIS.                RC : BRIEF HISTORY
CLNT.               TGS : CLIENT
DMF .                DF : DRILL MEAS FROM
FHIS.      RAW-LAS/COPY : FULL HISTORY
EKB .FT            2849 : KB ELEVATION
LMF .                DF : LOGS MEAS FROM
DATE.                10 : RUN DATE
TLI .FT        11222.42 : TOP DEPTH LOGGED
#
#   DEPT     RAW_RESA34 RAW_CALX  RAW_DRHO   RAW_GR    RAW_GR    RAW_LLD    RAW_LLS   RAW_PEF  RAW_RHOB  
#----------- ---------- --------- --------- --------- --------- ---------- --------- --------- --------- 
~ASCII LOG DATA
# ...
11008.50000  -999.250     8.7251    -.0154 -999.250    51.8078    66.5399   61.2912    3.8813    2.5563 
11009.00000  -999.250     8.7244    -.0131 -999.250    51.9746    62.4429   59.1972    3.7144    2.5586 
11009.50000  -999.250     8.7226    -.0119 -999.250    57.4923    62.5045   60.6434    3.6468    2.5618 
11010.00000  -999.250     8.7243    -.0122 -999.250    61.1732    63.2782   62.6112    3.6995    2.5661 
11010.50000  -999.250     8.7252    -.0134 -999.250    59.6918    63.2447   60.8451    3.7757    2.5709 
11011.00000  -999.250     8.7252    -.0187 -999.250    52.6968    53.1573   51.2419    3.7591    2.5698 
11011.50000  -999.250     8.7276    -.0199 -999.250    50.3332    43.7254   41.8326    3.5864    2.5567 
11012.00000  -999.250     8.7381    -.0197 -999.250    58.2555    37.3337   34.6989    3.3908    2.5270 
11012.50000  -999.250     8.7350    -.0203 -999.250    66.9174    33.3048   31.9783    3.2174    2.5201 
11013.00000  -999.250     8.7053    -.0182 -999.250    69.3266    39.7064   35.4149    3.2331    2.5415 
11013.50000  -999.250     8.7067    -.0169 -999.250    68.9245    53.3567   45.2305    3.3295    2.5597 
11014.00000  -999.250     8.7038    -.0165 -999.250    64.1159    78.7312   69.4168    3.4258    2.5701 
11014.50000  -999.250     8.6991    -.0169 -999.250    53.5711   115.4596  129.2087    3.5151    2.5788 
11015.00000  -999.250     8.6941    -.0116 -999.250    48.9969   123.0017  131.1447    3.5666    2.5863 
11015.50000  -999.250     8.6877    -.0053 -999.250    58.5189    90.3181   82.9308    3.5464    2.5753 
11016.00000  -999.250     8.6861    -.0046 -999.250    75.2055    72.0494   64.2906    3.2443    2.5334 
11016.50000  -999.250     8.6888    -.0060 -999.250    86.9515    67.6631   59.2389    2.9612    2.4987 
11017.00000  -999.250     8.6831    -.0052 -999.250    91.4217    75.8358   58.7512    2.7482    2.4948 
11017.50000  -999.250     8.6941    -.0035 -999.250    89.5383    91.4593   69.5483    2.6319    2.5050 
11018.00000  -999.250     8.6853    -.0052 -999.250    81.3292   130.6919   91.9876    2.6532    2.5154 
11018.50000  -999.250     8.6846    -.0070 -999.250    68.5083   196.8430  146.4319    2.8181    2.5309 
11019.00000  -999.250     8.6796    -.0070 -999.250    56.9561   381.4471  271.3672    3.1455    2.5611 
11019.50000  -999.250     8.6738    -.0090 -999.250    48.5508   730.3574  565.5049    3.3856    2.5738 
11020.00000  -999.250     8.6706    -.0137 -999.250    40.9819  1126.2964  718.3729    3.5528    2.5776 
11020.50000  -999.250     8.6679    -.0168 -999.250    30.7301  1203.9789  991.7736    3.7196    2.5942 
11021.00000  -999.250     8.6653    -.0190 -999.250    26.1817   868.3760  626.4996    3.9330    2.6042 
11021.50000  -999.250     8.6650    -.0238 -999.250    30.2845   867.7980  541.6350    3.9587    2.5891 
11022.00000  -999.250     8.6707    -.0266 -999.250    34.8454   924.5745  561.2902    3.8360    2.5713 
11022.50000  -999.250     8.6847    -.0289 -999.250    34.2649  1143.8107  745.8109    3.8380    2.5772 
11023.00000  -999.250     8.6915    -.0374 -999.250    28.2762  2315.9397 1911.4346    3.9771    2.5950 
11023.50000  -999.250     8.6928    -.0427 -999.250    26.6911  2054.4001 1591.4393    4.1801    2.6021 
11024.00000  -999.250     8.6830    -.0408 -999.250    31.5756  1137.2758  948.1972    4.3884    2.6022 
11024.50000  -999.250     8.6744    -.0357 -999.250    36.7593   940.6385  649.4579    4.4547    2.6050 
11025.00000  -999.250     8.6687    -.0272 -999.250    38.4098  1061.3932  752.4398    4.3606    2.6161 
11025.50000  -999.250     8.6651    -.0166 -999.250    35.8895  1169.3616  861.5634    4.3822    2.6229 
11026.00000  -999.250     8.6647    -.0115 -999.250    24.9540  1405.9194 1372.5380    4.3359    2.6173 
11026.50000  -999.250     8.6657    -.0071 -999.250    16.9132  1165.6710 1989.8387    4.0432    2.6072 
11027.00000  -999.250     8.6681    -.0017 -999.250    16.8689   346.1117  557.3624    3.7353    2.6076 
11027.50000  -999.250     8.6705     .0020 -999.250    24.9983   209.2132  173.5485    3.8258    2.6143 
11028.00000  -999.250     8.6729     .0048 -999.250    41.2624   171.5241  136.1039    4.0634    2.6096 
11028.50000  -999.250     8.6753     .0076 -999.250    47.3673   152.7113  123.0715    4.2609    2.5916 
11029.00000  -999.250     8.6778     .0046 -999.250    40.9235   162.3781  143.3903    4.4206    2.5768 
11029.50000  -999.250     8.6802     .0012 -999.250    39.0660   224.7318  177.0014    4.4937    2.5632 
11030.00000  -999.250     8.6826    -.0023 -999.250    45.7800   253.0124  197.8746    4.5053    2.5730 
11030.50000  -999.250     8.6819    -.0019 -999.250    45.1422   352.3253  271.8489    4.5248    2.5932 
11031.00000  -999.250     8.6790     .0017 -999.250    33.6122   879.0114  667.9541    4.5146    2.6018 
11031.50000  -999.250     8.6760     .0053 -999.250    25.6078  2566.5779 1963.7568    4.3814    2.5801 
11032.00000  -999.250     8.6731     .0089 -999.250    22.5623  2886.7102 1986.4280    4.2756    2.5811 
11032.50000  -999.250     8.6702     .0126 -999.250    22.8285  1527.2961 1979.3556    4.5174    2.5998 
11033.00000  -999.250     8.6673     .0145 -999.250    28.6849   471.3046  700.2709    4.7374    2.6148 
11033.50000  -999.250     8.6695     .0097 -999.250    34.7375   198.6658  337.8782    4.6708    2.6240 
11034.00000  -999.250     8.6744     .0064 -999.250    43.8912    66.0053   69.3066    4.4322    2.6138 
11034.50000  -999.250     8.6794     .0039 -999.250    58.9766    39.2151   40.0460    4.1298    2.5789 
11035.00000  -999.250     8.6845     .0001 -999.250    75.6762    34.2210   32.3581    3.7498    2.5496 
11035.50000  -999.250     8.6826    -.0042 -999.250    81.8823    33.4479   28.8368    3.4837    2.5414 
11036.00000  -999.250     8.6853    -.0106 -999.250    69.9185    52.7565   44.5552    3.4862    2.5467 
11036.50000  -999.250     8.6852    -.0148 -999.250    52.1192    93.1580   83.1108    3.6778    2.5691 
11037.00000  -999.250     8.6846    -.0161 -999.250    41.5548   160.1906  144.2412    4.0529    2.5975 
11037.50000  -999.250     8.6841    -.0127 -999.250    36.2652   149.5415  130.7962    4.2339    2.6123 
11038.00000  -999.250     8.6835    -.0108 -999.250    37.3054    90.4586   83.2758    4.1046    2.5961 
11038.50000  -999.250     8.6830    -.0113 -999.250    48.9568    79.8640   65.7152    3.8935    2.5672 
11039.00000  -999.250     8.6824    -.0087 -999.250    63.8316    87.7721   73.6025    3.7162    2.5384 
11039.50000  -999.250     8.6818    -.0039 -999.250    63.1211    89.0567   79.5750    3.6320    2.5273 
11040.00000  -999.250     8.6927     .0009 -999.250    56.5761    93.9612   88.5956    3.8231    2.5442 
11040.50000  -999.250     8.7022     .0046 -999.250    54.8414    96.4768   96.3051    4.0206    2.5680 
11041.00000  -999.250     8.7105     .0043 -999.250    57.6817    88.7051   81.7184    3.7758    2.5654 
11041.50000  -999.250     8.7138     .0058 -999.250    59.3195    89.7766   80.6400    3.4248    2.5353 
11042.00000  -999.250     8.7101     .0075 -999.250    56.0281    97.2523   97.0557    3.4069    2.5371 
11042.50000  -999.250     8.7049     .0066 -999.250    52.0410   100.1945   93.5734    3.5232    2.5705 
11043.00000  -999.250     8.7014     .0052 -999.250    50.5679    98.0215   91.9877    3.6629    2.5993 
11043.50000  -999.250     8.6741     .0038 -999.250    55.2358    82.5908   74.8962    3.6422    2.5895 
11044.00000  -999.250     8.6676     .0006 -999.250    60.1188    68.5484   58.6079    3.4584    2.5511 
11044.50000  -999.250     8.6809    -.0047 -999.250    63.1924    68.4032   54.4222    3.2121    2.5126 
11045.00000  -999.250     8.6842     .0012 -999.250    65.8865    85.8275   64.2499    3.0594    2.4936 
11045.50000  -999.250     8.6819     .0070 -999.250    61.4195   115.6606   85.6142    3.2009    2.5167 
11046.00000  -999.250     8.6760     .0052 -999.250    44.7376   290.4650  177.8925    3.6772    2.5608 
11046.50000  -999.250     8.6701     .0011 -999.250    28.7350  1410.1167  989.1744    4.1599    2.6054 
