# LAS WORX (tm) v17.01.12 Header Hash (44511) Data Hash (251473119) DO NOT REMOVE THIS LINE
# Original File Owner: ANADARKO\gwm835 (User)
#
~VERSION INFORMATION SECTION
VERS. 2.0 : CWLS LOG ASCII STANDARD-VERSION 2.0
WRAP. NO  : ONE LINE PER DEPTH STEP
#
#MNEM UNIT         VALUE/NAME             DESCRIPTION  
#---- ---- --------------------------   ---------------
~WELL INFORMATION SECTION
STRT.F                     190.00000 : TOP DEPTH
STOP.F                   16132.00000 : BOTTOM DEPTH
STEP.F                       0.50000 : DEPTH INCREMENT
NULL.                       -999.250 : NULL VALUE
API .                 42495335780000 : WELL API
CNTY.                        WINKLER : COUNTY
COMP.                 XTO ENERGY INC : OPERATOR
EGL .                           2826 : GROUND LEVEL
EKB .                           2849 : KB ELEVATION
EPD .                            0.0 : ELEV PERM DATUM
FLD .                        WINKLER : FIELD NAME
LAT .                       31.73723 : SURF. LATITUDE
LMF .                             KB : LOGS MEAS FROM
LON .                     -103.26065 : SURF. LONGITUDE
SPUD.                     2014/09/13 : SPUD DATE
STAT.                             TX : STATE
UWI .                 42495335780000 : UWI
WELL.      UNIVERSITY BLOCK 21 1804H : NAME
#
# MNEM   UNIT   API CODES                     DESCRIPTION                 
#------- ---- -------------   --------------------------------------------
#=========                                        ========    == ===========
~CURVE INFORMATION SECTION
DEPT   .F     00 001 00 00 : 1  DEPTH
RAW_RESA34.OHMM               : 2  ARC ATTENUATION RESISTIVITY 34 INCH SPAC (Original mnemonic = A34H)
RAW_CALX.IN                 : 4  CALIPER FROM DENSITY LOG (Original mnemonic = CALD)
RAW_DRHO.G/CC               : 5  DENSITY CORRECTION (Original mnemonic = DCOR)
RAW_GR .GAPI               : 7  GAMMA RAY (Original mnemonic = GR)
RAW_GR .GAPI               : 8  GAMMA RAY FROM DENSITY LOG (Original mnemonic = GRD)
RAW_LLD.OHMM               : 9  LATEROLOG DEEP RESISTIVITY (Original mnemonic = LLD)
RAW_LLS.OHMM               : 10  LATEROLOG SHALLOW RESISTIVITY (Original mnemonic = LLS)
RAW_PEF.B/E                : 15  PHOTOELECTRIC CROSS SECTION (Original mnemonic = PE)
RAW_RHOB.G/CC               : 16  BULK DENSITY (Original mnemonic = RHOB)
#
#MNEM UNIT  VALUE/NAME         DESCRIPTION    
#---- ---- -------------   -------------------
~PARAMETERS INFORMATION SECTION
LNAM.         COMPOSITE : NAME
LTYP.          PURCHASE : LOG TYPE
LVSN.                 1 : LOG VERSION
BHT .DEGF          0723 : BH TEMP
BLI .FT        14211.92 : BOTTOM DEPTH LOGGED
BHIS.                RC : BRIEF HISTORY
CLNT.               TGS : CLIENT
DMF .                DF : DRILL MEAS FROM
FHIS.      RAW-LAS/COPY : FULL HISTORY
EKB .FT            2849 : KB ELEVATION
LMF .                DF : LOGS MEAS FROM
DATE.                10 : RUN DATE
TLI .FT        11222.42 : TOP DEPTH LOGGED
#
#   DEPT     RAW_RESA34 RAW_CALX  RAW_DRHO   RAW_GR    RAW_GR    RAW_LLD    RAW_LLS   RAW_PEF  RAW_RHOB  
#----------- ---------- --------- --------- --------- --------- ---------- --------- --------- --------- 
~ASCII LOG DATA
# ...
 7697.50000  -999.250     9.7788     .1062 -999.250   100.5756    76.0015   42.2329    4.0105    2.3266 
 7698.00000  -999.250    10.0420     .0994 -999.250    92.4685    72.7010   39.9659    4.0105    2.3004 
 7698.50000  -999.250    10.0027     .1011 -999.250    83.5245    78.6412   41.2538    4.0105    2.2850 
 7699.00000  -999.250    10.1923     .1176 -999.250    73.7845    87.0326   44.9875    4.0105    2.2539 
 7699.50000  -999.250     9.8495     .1426 -999.250    66.2814    96.3193   50.4567    4.0226    2.2471 
 7700.00000  -999.250     9.7194     .1745 -999.250    66.0998   105.0563   54.5148    4.0856    2.2770 
 7700.50000  -999.250     9.7330     .1910 -999.250    67.8900   108.8282   55.7070    4.1925    2.2714 
 7701.00000  -999.250     9.7490     .2063 -999.250    68.1812   103.8970   53.6460    4.3944    2.2289 
 7701.50000  -999.250     9.8980     .2213 -999.250    70.9993    92.3698   48.3555    4.5003    2.1935 
 7702.00000  -999.250     9.9141     .2222 -999.250    73.6253    81.4935   42.5542    4.5764    2.1241 
 7702.50000  -999.250     9.8812     .2137 -999.250    66.2921    71.7501   38.6001    4.7029    2.0484 
 7703.00000  -999.250     9.6084     .1697 -999.250    59.2564    64.7887   34.9150    5.0945    1.9842 
 7703.50000  -999.250     9.2334     .0997 -999.250    59.4489    62.4059   33.3486    4.9321    2.0767 
 7704.00000  -999.250     9.1067     .0392 -999.250    63.9336    58.0032   33.4099    4.2631    2.3072 
 7704.50000  -999.250     9.0741     .0305 -999.250    68.4090    49.8284   30.8980    3.5570    2.4577 
 7705.00000  -999.250     9.0849     .0864 -999.250    67.6981    39.7305   26.0021    3.2556    2.4668 
 7705.50000  -999.250     9.1127     .1751 -999.250    63.2947    31.4703   20.3705    3.2591    2.4599 
 7706.00000  -999.250     9.1382     .1951 -999.250    58.9371    25.9261   16.9033    3.2357    2.4747 
 7706.50000  -999.250     9.1582     .1373 -999.250    56.8739    23.1694   15.6440    3.0316    2.4962 
 7707.00000  -999.250     9.1804     .0478 -999.250    57.4315    21.7461   15.0744    2.7365    2.4838 
 7707.50000  -999.250     9.2041     .0125 -999.250    60.0902    20.0963   14.6626    2.7150    2.4785 
 7708.00000  -999.250     9.2283     .0041 -999.250    63.8237    18.8941   14.3130    2.8086    2.4978 
 7708.50000  -999.250     9.2461     .0001 -999.250    69.0498    16.3443   13.0854    2.8385    2.5133 
 7709.00000  -999.250     9.2552    -.0022 -999.250    70.8560    15.4753   11.5108    2.7908    2.5232 
 7709.50000  -999.250     9.2668    -.0037 -999.250    63.7102    16.3585   12.5003    2.7775    2.5320 
 7710.00000  -999.250     9.2692    -.0030 -999.250    59.7760    16.7638   13.0641    2.7920    2.5328 
 7710.50000  -999.250     9.2584    -.0008 -999.250    60.1487    16.7844   13.4990    2.9392    2.5512 
 7711.00000  -999.250     9.2244     .0014 -999.250    58.4410    16.6218   13.0964    3.0812    2.5641 
 7711.50000  -999.250     9.1995     .0036 -999.250    59.2719    15.0792   10.5185    3.0855    2.5634 
 7712.00000  -999.250     9.1605     .0058 -999.250    61.2619    15.3286   10.3739    2.9821    2.5565 
 7712.50000  -999.250     9.1476     .0063 -999.250    56.4805    16.8257   11.0354    2.9047    2.5402 
 7713.00000  -999.250     9.1226     .0056 -999.250    52.7445    22.0981   14.5593    2.9165    2.5293 
 7713.50000  -999.250     9.1086     .0071 -999.250    59.7456    37.5319   21.4554    2.9566    2.5338 
 7714.00000  -999.250     9.0855     .0098 -999.250    76.9826    53.3950   31.4478    3.0319    2.5430 
 7714.50000  -999.250     9.0663     .0129 -999.250    88.3734    59.6113   36.4436    3.1146    2.5554 
 7715.00000  -999.250     9.0514     .0181 -999.250    82.6445    57.1379   33.7783    3.2034    2.5735 
 7715.50000  -999.250     9.0263     .0216 -999.250    76.9944    51.1110   29.1267    3.2715    2.5871 
 7716.00000  -999.250     9.0263     .0191 -999.250    75.2458    45.4536   25.2311    3.2416    2.5846 
 7716.50000  -999.250     9.0227     .0185 -999.250    73.9160    42.2270   21.9373    3.0802    2.5741 
 7717.00000  -999.250     9.0257     .0192 -999.250    73.6048    41.2749   20.7364    2.8766    2.5723 
 7717.50000  -999.250     9.0313     .0148 -999.250    73.4884    44.6973   20.5631    2.7219    2.5743 
 7718.00000  -999.250     9.0272     .0126 -999.250    74.6252    58.2546   26.5465    2.8074    2.5767 
 7718.50000  -999.250     9.0166     .0103 -999.250    75.3908    71.2130   34.3008    3.1286    2.5870 
 7719.00000  -999.250     8.9863     .0064 -999.250    74.3871    83.9701   38.6614    3.5151    2.5926 
 7719.50000  -999.250     9.8802     .0052 -999.250    73.4094    90.1911   40.9537    3.6141    2.5779 
 7720.00000  -999.250    10.6986     .0041 -999.250    74.6839    94.2488   41.3857    3.6501    2.5656 
 7720.50000  -999.250    10.7609     .0029 -999.250    77.4640   100.3515   42.8552    3.6876    2.5665 
 7721.00000  -999.250    10.8232     .0037 -999.250    82.8879   115.2596   48.3766    3.8428    2.5630 
 7721.50000  -999.250    10.8760     .0067 -999.250    86.7682   131.3661   55.1459    3.9181    2.5596 
 7722.00000  -999.250    10.9241     .0098 -999.250    87.5009   137.5672   53.1908    3.8138    2.5668 
 7722.50000  -999.250    10.9899     .0125 -999.250    85.6143   141.7693   52.3916    3.7050    2.5777 
 7723.00000  -999.250    11.0872     .0141 -999.250    88.0459   169.9856   62.1598    3.6907    2.5813 
 7723.50000  -999.250    11.1522     .0139 -999.250    93.1480   176.5101   64.9789    3.8103    2.5799 
 7724.00000  -999.250    11.2172     .0133 -999.250    96.4080   178.3929   65.4692    3.8390    2.5760 
 7724.50000  -999.250    11.2523     .0078 -999.250    97.1247   177.7876   67.0396    3.8414    2.5735 
 7725.00000  -999.250    11.2390     .0002 -999.250    88.7640   173.0551   66.9307    3.8233    2.5806 
 7725.50000  -999.250    11.5930    -.0057 -999.250    66.0999   161.2027   63.7972    3.7486    2.5989 
 7726.00000  -999.250    11.7241    -.0098 -999.250    55.3445   135.6307   56.5135    3.6634    2.6083 
 7726.50000  -999.250    11.0802    -.0139 -999.250    64.1872   106.2318   47.4582    3.7011    2.5888 
 7727.00000  -999.250    10.0915    -.0088 -999.250    77.8780    80.9347   34.6650    3.6579    2.5596 
 7727.50000  -999.250     9.8927     .0135 -999.250    85.4114    68.3919   29.6883    3.4449    2.5393 
 7728.00000  -999.250     9.5797     .0178 -999.250    89.9984    65.9437   28.6310    3.3225    2.5207 
 7728.50000  -999.250     9.7288     .0146 -999.250    93.7909    66.1664   28.9361    3.2813    2.5119 
 7729.00000  -999.250    10.7140     .0047 -999.250    88.8334    65.4717   29.4360    3.2067    2.5205 
 7729.50000  -999.250     9.4188    -.0014 -999.250    78.1990    58.9628   28.3589    3.0945    2.5434 
 7730.00000  -999.250     9.2968    -.0076 -999.250    65.8203    50.6847   24.4704    3.0862    2.5581 
 7730.50000  -999.250     9.3796    -.0134 -999.250    53.9352    42.8308   20.4084    3.0972    2.5697 
 7731.00000  -999.250     9.4948    -.0174 -999.250    48.4270    37.7299   17.2541    3.0426    2.5741 
 7731.50000  -999.250     9.6100    -.0201 -999.250    46.4554    38.0924   16.9543    2.8865    2.5643 
 7732.00000  -999.250     9.5647    -.0184 -999.250    43.6368    43.2463   20.3598    2.9107    2.5683 
 7732.50000  -999.250     9.4405    -.0134 -999.250    41.8632    46.0658   22.5270    3.0749    2.6062 
 7733.00000  -999.250     9.4762    -.0118 -999.250    49.0235    41.8473   19.8692    3.3579    2.6195 
 7733.50000  -999.250     9.5092    -.0036 -999.250    63.8015    34.5926   17.6569    3.4286    2.5721 
 7734.00000  -999.250     9.4806     .0419 -999.250    75.8463    27.8330   14.5009    3.4695    2.4982 
 7734.50000  -999.250     9.4695     .1193 -999.250    84.9103    21.1692   11.2380    3.5999    2.4744 
 7735.00000  -999.250     9.5335     .1753 -999.250    85.1636    15.9636    8.5483    3.7399    2.4583 
 7735.50000  -999.250     9.5426     .1500 -999.250    78.8972    13.0587    7.0406    3.5973    2.4206 
