# LAS WORX (tm) v17.01.12 Header Hash (44511) Data Hash (251473119) DO NOT REMOVE THIS LINE
# Original File Owner: ANADARKO\gwm835 (User)
#
~VERSION INFORMATION SECTION
VERS. 2.0 : CWLS LOG ASCII STANDARD-VERSION 2.0
WRAP. NO  : ONE LINE PER DEPTH STEP
#
#MNEM UNIT         VALUE/NAME             DESCRIPTION  
#---- ---- --------------------------   ---------------
~WELL INFORMATION SECTION
STRT.F                     190.00000 : TOP DEPTH
STOP.F                   16132.00000 : BOTTOM DEPTH
STEP.F                       0.50000 : DEPTH INCREMENT
NULL.                       -999.250 : NULL VALUE
API .                 42495335780000 : WELL API
CNTY.                        WINKLER : COUNTY
COMP.                 XTO ENERGY INC : OPERATOR
EGL .                           2826 : GROUND LEVEL
EKB .                           2849 : KB ELEVATION
EPD .                            0.0 : ELEV PERM DATUM
FLD .                        WINKLER : FIELD NAME
LAT .                       31.73723 : SURF. LATITUDE
LMF .                             KB : LOGS MEAS FROM
LON .                     -103.26065 : SURF. LONGITUDE
SPUD.                     2014/09/13 : SPUD DATE
STAT.                             TX : STATE
UWI .                 42495335780000 : UWI
WELL.      UNIVERSITY BLOCK 21 1804H : NAME
#
# MNEM   UNIT   API CODES                     DESCRIPTION                 
#------- ---- -------------   --------------------------------------------
#=========                                        ========    == ===========
~CURVE INFORMATION SECTION
DEPT   .F     00 001 00 00 : 1  DEPTH
RAW_RESA34.OHMM               : 2  ARC ATTENUATION RESISTIVITY 34 INCH SPAC (Original mnemonic = A34H)
RAW_CALX.IN                 : 4  CALIPER FROM DENSITY LOG (Original mnemonic = CALD)
RAW_DRHO.G/CC               : 5  DENSITY CORRECTION (Original mnemonic = DCOR)
RAW_GR .GAPI               : 7  GAMMA RAY (Original mnemonic = GR)
RAW_GR .GAPI               : 8  GAMMA RAY FROM DENSITY LOG (Original mnemonic = GRD)
RAW_LLD.OHMM               : 9  LATEROLOG DEEP RESISTIVITY (Original mnemonic = LLD)
RAW_LLS.OHMM               : 10  LATEROLOG SHALLOW RESISTIVITY (Original mnemonic = LLS)
RAW_PEF.B/E                : 15  PHOTOELECTRIC CROSS SECTION (Original mnemonic = PE)
RAW_RHOB.G/CC               : 16  BULK DENSITY (Original mnemonic = RHOB)
#
#MNEM UNIT  VALUE/NAME         DESCRIPTION    
#---- ---- -------------   -------------------
~PARAMETERS INFORMATION SECTION
LNAM.         COMPOSITE : NAME
LTYP.          PURCHASE : LOG TYPE
LVSN.                 1 : LOG VERSION
BHT .DEGF          0723 : BH TEMP
BLI .FT        14211.92 : BOTTOM DEPTH LOGGED
BHIS.                RC : BRIEF HISTORY
CLNT.               TGS : CLIENT
DMF .                DF : DRILL MEAS FROM
FHIS.      RAW-LAS/COPY : FULL HISTORY
EKB .FT            2849 : KB ELEVATION
LMF .                DF : LOGS MEAS FROM
DATE.                10 : RUN DATE
TLI .FT        11222.42 : TOP DEPTH LOGGED
#
#   DEPT     RAW_RESA34 RAW_CALX  RAW_DRHO   RAW_GR    RAW_GR    RAW_LLD    RAW_LLS   RAW_PEF  RAW_RHOB  
#----------- ---------- --------- --------- --------- --------- ---------- --------- --------- --------- 
~ASCII LOG DATA
# ...
 9776.50000  -999.250     8.7471     .0032 -999.250    20.7452   490.5765  416.0065    2.8326    2.5272 
 9777.00000  -999.250     8.7463    -.0086 -999.250    18.7689   677.1173  512.4449    3.0446    2.5607 
 9777.50000  -999.250     8.7689    -.0182 -999.250    18.1286   628.4155  517.2492    3.0720    2.5465 
 9778.00000  -999.250     8.7704    -.0127 -999.250    20.1023   450.9777  367.2396    3.0937    2.5428 
 9778.50000  -999.250     8.8037    -.0057 -999.250    19.9305   457.2700  359.1035    3.4624    2.5818 
 9779.00000  -999.250     8.7805     .0010 -999.250    18.2414   417.9164  339.3563    3.6467    2.5864 
 9779.50000  -999.250     8.7674     .0075 -999.250    18.2912   367.3027  289.9630    3.3527    2.5532 
 9780.00000  -999.250     8.7542     .0111 -999.250    18.5760   425.1740  341.0852    2.9472    2.5549 
 9780.50000  -999.250     8.7506     .0132 -999.250    18.0755   508.9332  391.3970    2.6555    2.5732 
 9781.00000  -999.250     8.7649     .0137 -999.250    15.6931   538.0345  458.8434    2.6741    2.5876 
 9781.50000  -999.250     8.7538     .0109 -999.250    12.4534   629.1224  501.3678    3.0346    2.5964 
 9782.00000  -999.250     8.7513     .0034 -999.250    13.3824   810.9373  635.5891    3.5100    2.6044 
 9782.50000  -999.250     8.7621    -.0041 -999.250    17.6295   814.7656  632.2905    3.5934    2.5993 
 9783.00000  -999.250     8.7688    -.0118 -999.250    20.6514   759.7485  725.1098    3.6217    2.5898 
 9783.50000  -999.250     8.7732    -.0180 -999.250    20.7236   718.0358  585.7189    3.7007    2.6014 
 9784.00000  -999.250     8.8072    -.0177 -999.250    19.3979   662.5181  530.1190    3.7504    2.6062 
 9784.50000  -999.250     8.8139    -.0174 -999.250    17.1401   593.5239  475.8358    3.7403    2.5900 
 9785.00000  -999.250     8.8009    -.0164 -999.250    15.7215   590.6823  469.7692    3.7843    2.5878 
 9785.50000  -999.250     8.7854    -.0158 -999.250    18.6388   643.5380  570.9248    3.9204    2.5990 
 9786.00000  -999.250     8.7854    -.0143 -999.250    22.7855   416.2797  359.8295    3.9221    2.5842 
 9786.50000  -999.250     8.7944    -.0075 -999.250    23.9052   329.0193  256.6306    3.7881    2.5687 
 9787.00000  -999.250     8.8255    -.0012 -999.250    24.5823   338.6723  271.5618    3.5978    2.5569 
 9787.50000  -999.250     8.8137     .0048 -999.250    26.0882   356.8672  273.1014    3.3206    2.5409 
 9788.00000  -999.250     8.7977     .0108 -999.250    29.9463   484.8096  407.3791    3.4456    2.5675 
 9788.50000  -999.250     8.8152     .0144 -999.250    27.2910   838.3142  678.0722    3.8480    2.6196 
 9789.00000  -999.250     8.8290     .0122 -999.250    21.1389   993.9041  861.3066    4.1621    2.6292 
 9789.50000  -999.250     8.8270     .0051 -999.250    17.7130   930.8822  693.4103    4.1807    2.6195 
 9790.00000  -999.250     8.8259     .0016 -999.250    18.0334   979.2710  775.8102    4.0583    2.6016 
 9790.50000  -999.250     8.8251    -.0018 -999.250    19.2609  1061.5243  813.4775    3.9009    2.5875 
 9791.00000  -999.250     8.8565    -.0053 -999.250    18.6477  1112.5510  900.6672    3.8201    2.5931 
 9791.50000  -999.250     8.8444    -.0088 -999.250    16.9771  1335.2180  999.6498    3.8894    2.6030 
 9792.00000  -999.250     8.8380    -.0090 -999.250    17.2361  1310.4880  930.2446    3.9694    2.6069 
 9792.50000  -999.250     8.8408    -.0046 -999.250    18.1934  1294.8809  989.1342    4.0341    2.6164 
 9793.00000  -999.250     8.8458     .0014 -999.250    18.6487  1251.2192  992.0649    4.0165    2.6194 
 9793.50000  -999.250     8.8475     .0073 -999.250    18.1646  1213.6296  914.6920    3.9447    2.6220 
 9794.00000  -999.250     8.8520     .0117 -999.250    17.2132  1067.3257  787.0750    3.8270    2.6277 
 9794.50000  -999.250     8.8532     .0136 -999.250    17.5356  1073.3473  755.6268    3.7445    2.6192 
 9795.00000  -999.250     8.8511     .0150 -999.250    18.2876  1195.8279  862.9745    3.7623    2.6100 
 9795.50000  -999.250     8.8490     .0160 -999.250    16.3942  1431.6177 1121.7898    3.8903    2.6144 
 9796.00000  -999.250     8.8469     .0153 -999.250    15.4800  1541.8561 1245.8744    4.1551    2.6245 
 9796.50000  -999.250     8.8459     .0140 -999.250    16.0828  1354.4410 1081.4088    4.1572    2.6242 
 9797.00000  -999.250     8.8445     .0142 -999.250    16.4596  1139.8209  866.7872    4.0366    2.6206 
 9797.50000  -999.250     8.8369     .0137 -999.250    15.6167  1115.6061  839.6808    3.8962    2.6171 
 9798.00000  -999.250     8.8418     .0121 -999.250    16.4926  1132.4249  874.2307    3.8461    2.6112 
 9798.50000  -999.250     8.8435     .0096 -999.250    17.5240  1293.7654  991.1498    3.8063    2.6150 
 9799.00000  -999.250     8.8265     .0066 -999.250    18.0084  1501.9634 1156.9274    3.7375    2.6268 
 9799.50000  -999.250     8.8459     .0036 -999.250    17.2455  1542.6079 1143.0624    3.5854    2.6244 
 9800.00000  -999.250     8.8451     .0021 -999.250    16.3022  1741.8535 1299.2993    3.4360    2.6151 
 9800.50000  -999.250     8.8350     .0045 -999.250    16.7746  1864.8717 1452.9607    3.4034    2.6101 
 9801.00000  -999.250     8.8196     .0093 -999.250    17.5356  1699.3750 1329.3778    3.4491    2.6122 
 9801.50000  -999.250     8.8210     .0150 -999.250    17.9866  1720.0624 1297.1776    3.6634    2.6300 
 9802.00000  -999.250     8.8268     .0198 -999.250    17.1603  1661.7258 1318.0002    4.0133    2.6511 
 9802.50000  -999.250     8.8326     .0220 -999.250    16.5807  1485.2666 1121.0818    4.2363    2.6489 
 9803.00000  -999.250     8.8310     .0205 -999.250    17.1177  1457.7704 1137.3756    4.1866    2.6340 
 9803.50000  -999.250     8.8314     .0152 -999.250    16.4466  1499.6597 1112.2000    4.0087    2.6269 
 9804.00000  -999.250     8.8321     .0107 -999.250    15.7041  1541.4016 1157.8525    3.8862    2.6210 
 9804.50000  -999.250     8.8329     .0062 -999.250    16.3692  1635.2672 1217.3357    3.8125    2.6110 
 9805.00000  -999.250     8.8336     .0021 -999.250    17.5412  1982.8903 1493.6052    3.8680    2.6084 
 9805.50000  -999.250     8.8343     .0021 -999.250    17.8234  2107.2886 1643.1935    3.9289    2.6210 
 9806.00000  -999.250     8.8362     .0073 -999.250    16.7723  1989.6847 1497.6423    3.9806    2.6300 
 9806.50000  -999.250     8.8492     .0129 -999.250    14.8100  1887.1801 1463.4266    4.0322    2.6347 
 9807.00000  -999.250     8.8363     .0185 -999.250    15.8877  1666.1836 1242.9115    4.0763    2.6417 
 9807.50000  -999.250     8.8142     .0184 -999.250    16.8750  1715.2449 1242.6195    4.0577    2.6592 
 9808.00000  -999.250     8.8033     .0149 -999.250    15.1493  1823.9454 1374.4268    3.9711    2.6633 
 9808.50000  -999.250     8.7988     .0126 -999.250    15.4716  1728.3229 1347.7485    3.8676    2.6484 
 9809.00000  -999.250     8.7921     .0129 -999.250    16.7818  1767.0784 1346.4928    3.7910    2.6357 
 9809.50000  -999.250     8.8173     .0110 -999.250    16.5363  1842.7947 1436.7739    3.7450    2.6352 
 9810.00000  -999.250     8.8288     .0079 -999.250    15.5825  1618.4723 1239.4583    3.6836    2.6407 
 9810.50000  -999.250     8.8310     .0058 -999.250    14.5371  1568.3221 1298.2462    3.7408    2.6498 
 9811.00000  -999.250     8.7999     .0031 -999.250    14.8236  1522.4023 1188.9644    3.8569    2.6367 
 9811.50000  -999.250     8.7894    -.0002 -999.250    15.9364  1179.2307 1109.9639    3.8685    2.6142 
 9812.00000  -999.250     8.7879    -.0034 -999.250    16.3210  1064.6974  851.3564    3.8169    2.5975 
 9812.50000  -999.250     8.7863    -.0067 -999.250    16.6570   920.7786  849.2190    3.8439    2.5867 
 9813.00000  -999.250     8.7857    -.0070 -999.250    18.1142   780.9092  635.0066    3.9115    2.5800 
 9813.50000  -999.250     8.7757    -.0028 -999.250    18.6939   687.5494  566.7652    3.8168    2.5844 
 9814.00000  -999.250     8.7659     .0076 -999.250    16.8541   650.4577  535.7256    3.6616    2.5722 
 9814.50000  -999.250     8.7643     .0095 -999.250    17.3614   645.4447  524.7548    3.4763    2.5346 
