# LAS WORX (tm) v17.01.12 Header Hash (44511) Data Hash (251473119) DO NOT REMOVE THIS LINE
# Original File Owner: ANADARKO\gwm835 (User)
#
~VERSION INFORMATION SECTION
VERS. 2.0 : CWLS LOG ASCII STANDARD-VERSION 2.0
WRAP. NO  : ONE LINE PER DEPTH STEP
#
#MNEM UNIT         VALUE/NAME             DESCRIPTION  
#---- ---- --------------------------   ---------------
~WELL INFORMATION SECTION
STRT.F                     190.00000 : TOP DEPTH
STOP.F                   16132.00000 : BOTTOM DEPTH
STEP.F                       0.50000 : DEPTH INCREMENT
NULL.                       -999.250 : NULL VALUE
API .                 42495335780000 : WELL API
CNTY.                        WINKLER : COUNTY
COMP.                 XTO ENERGY INC : OPERATOR
EGL .                           2826 : GROUND LEVEL
EKB .                           2849 : KB ELEVATION
EPD .                            0.0 : ELEV PERM DATUM
FLD .                        WINKLER : FIELD NAME
LAT .                       31.73723 : SURF. LATITUDE
LMF .                             KB : LOGS MEAS FROM
LON .                     -103.26065 : SURF. LONGITUDE
SPUD.                     2014/09/13 : SPUD DATE
STAT.                             TX : STATE
UWI .                 42495335780000 : UWI
WELL.      UNIVERSITY BLOCK 21 1804H : NAME
#
# MNEM   UNIT   API CODES                     DESCRIPTION                 
#------- ---- -------------   --------------------------------------------
#=========                                        ========    == ===========
~CURVE INFORMATION SECTION
DEPT   .F     00 001 00 00 : 1  DEPTH
RAW_RESA34.OHMM               : 2  ARC ATTENUATION RESISTIVITY 34 INCH SPAC (Original mnemonic = A34H)
RAW_CALX.IN                 : 4  CALIPER FROM DENSITY LOG (Original mnemonic = CALD)
RAW_DRHO.G/CC               : 5  DENSITY CORRECTION (Original mnemonic = DCOR)
RAW_GR .GAPI               : 7  GAMMA RAY (Original mnemonic = GR)
RAW_GR .GAPI               : 8  GAMMA RAY FROM DENSITY LOG (Original mnemonic = GRD)
RAW_LLD.OHMM               : 9  LATEROLOG DEEP RESISTIVITY (Original mnemonic = LLD)
RAW_LLS.OHMM               : 10  LATEROLOG SHALLOW RESISTIVITY (Original mnemonic = LLS)
RAW_PEF.B/E                : 15  PHOTOELECTRIC CROSS SECTION (Original mnemonic = PE)
RAW_RHOB.G/CC               : 16  BULK DENSITY (Original mnemonic = RHOB)
#
#MNEM UNIT  VALUE/NAME         DESCRIPTION    
#---- ---- -------------   -------------------
~PARAMETERS INFORMATION SECTION
LNAM.         COMPOSITE : NAME
LTYP.          PURCHASE : LOG TYPE
LVSN.                 1 : LOG VERSION
BHT .DEGF          0723 : BH TEMP
BLI .FT        14211.92 : BOTTOM DEPTH LOGGED
BHIS.                RC : BRIEF HISTORY
CLNT.               TGS : CLIENT
DMF .                DF : DRILL MEAS FROM
FHIS.      RAW-LAS/COPY : FULL HISTORY
EKB .FT            2849 : KB ELEVATION
LMF .                DF : LOGS MEAS FROM
DATE.                10 : RUN DATE
TLI .FT        11222.42 : TOP DEPTH LOGGED
#
#   DEPT     RAW_RESA34 RAW_CALX  RAW_DRHO   RAW_GR    RAW_GR    RAW_LLD    RAW_LLS   RAW_PEF  RAW_RHOB  
#----------- ---------- --------- --------- --------- --------- ---------- --------- --------- --------- 
~ASCII LOG DATA
# ...
 5618.50000  -999.250    11.1103     .0116 -999.250    34.0070     1.1482     .8080    3.6995    2.2839 
 5619.00000  -999.250    11.0874     .0095 -999.250    33.5764     1.1452     .8233    3.8374    2.2879 
 5619.50000  -999.250    11.0669     .0062 -999.250    37.4402     1.1600     .8515    3.9490    2.3016 
 5620.00000  -999.250    10.9636     .0065 -999.250    39.3991     1.1906     .8879    4.0943    2.3093 
 5620.50000  -999.250    10.8604     .0061 -999.250    36.8084     1.2318     .9146    4.1645    2.3087 
 5621.00000  -999.250    10.8378     .0045 -999.250    34.7095     1.2928     .9337    4.0262    2.3083 
 5621.50000  -999.250    10.8027     .0018 -999.250    35.1133     1.3575     .9611    3.8548    2.3137 
 5622.00000  -999.250    10.7762    -.0003 -999.250    38.2153     1.5162     .9894    3.6850    2.3194 
 5622.50000  -999.250    10.7245     .0078 -999.250    40.8942     1.7101    1.1169    3.6893    2.3365 
 5623.00000  -999.250    10.6808     .0211 -999.250    43.8333     2.0910    1.4117    3.9210    2.3684 
 5623.50000  -999.250    10.5701     .0143 -999.250    50.9300     2.5505    1.6542    4.1526    2.4173 
 5624.00000  -999.250    10.3437    -.0016 -999.250    55.5174     2.7185    1.8114    4.4296    2.4389 
 5624.50000  -999.250    10.3396    -.0122 -999.250    51.2538     2.4711    1.6848    4.8355    2.4151 
 5625.00000  -999.250    10.3639    -.0188 -999.250    44.4348     2.1955    1.5434    5.2414    2.3802 
 5625.50000  -999.250    10.3850    -.0205 -999.250    42.6123     2.1959    1.5134    5.5717    2.3671 
 5626.00000  -999.250    10.4016    -.0139 -999.250    40.6922     2.3625    1.6552    5.6434    2.3700 
 5626.50000  -999.250    10.4187    -.0073 -999.250    37.2985     2.5585    1.8581    5.6413    2.3727 
 5627.00000  -999.250    10.4220    -.0088 -999.250    38.0743     2.9129    2.0967    5.5425    2.3768 
 5627.50000  -999.250    10.4057    -.0102 -999.250    41.2820     3.2349    2.3494    5.4502    2.3993 
 5628.00000  -999.250    10.3863    -.0108 -999.250    41.7464     3.3455    2.4639    5.4227    2.4331 
 5628.50000  -999.250    10.3873    -.0088 -999.250    41.6774     3.2885    2.4940    5.2388    2.4429 
 5629.00000  -999.250    10.3855    -.0064 -999.250    43.3054     3.1302    2.4093    4.8751    2.4447 
 5629.50000  -999.250    10.3719    -.0061 -999.250    47.4106     2.8235    2.3173    4.2760    2.4336 
 5630.00000  -999.250    10.3682    -.0060 -999.250    46.5843     2.3663    2.0603    4.0431    2.4200 
 5630.50000  -999.250    10.3720    -.0058 -999.250    44.0266     2.0833    1.6274    4.0535    2.4122 
 5631.00000  -999.250    10.3842    -.0060 -999.250    38.8676     1.9839    1.5891    4.0323    2.3993 
 5631.50000  -999.250    10.3904    -.0060 -999.250    34.0570     1.9477    1.5864    4.0036    2.3879 
 5632.00000  -999.250    10.3981    -.0046 -999.250    34.1513     2.2621    1.7457    4.0858    2.3937 
 5632.50000  -999.250    10.3992    -.0021 -999.250    36.3656     2.6100    2.0946    4.1600    2.4083 
 5633.00000  -999.250    10.3853     .0035 -999.250    38.4986     3.0568    2.4970    4.1803    2.4290 
 5633.50000  -999.250    10.3865     .0114 -999.250    37.4038     3.7625    3.0193    4.2618    2.4541 
 5634.00000  -999.250    10.3576     .0149 -999.250    33.0526     4.5028    3.7286    4.3622    2.4857 
 5634.50000  -999.250    10.3327     .0107 -999.250    31.9504     4.4442    3.7201    4.2851    2.5077 
 5635.00000  -999.250    10.2722    -.0044 -999.250    36.1030     3.6095    3.3243    4.1082    2.5160 
 5635.50000  -999.250    10.1886    -.0075 -999.250    43.9355     3.0779    2.6882    4.0751    2.5281 
 5636.00000  -999.250    10.0591    -.0085 -999.250    48.7774     2.9973    2.5289    4.4937    2.5312 
 5636.50000  -999.250     9.8678    -.0093 -999.250    45.3969     3.4783    3.1077    5.0116    2.5126 
 5637.00000  -999.250     9.8416    -.0110 -999.250    44.0509     4.9602    4.2437    5.2095    2.5094 
 5637.50000  -999.250     9.7180    -.0116 -999.250    52.4872     6.7337    6.3387    4.6488    2.5425 
 5638.00000  -999.250     9.5362    -.0072 -999.250    60.5287     6.5071    5.7144    3.7591    2.5765 
 5638.50000  -999.250     9.4769    -.0018 -999.250    58.0613     5.1124    4.5896    3.6259    2.5931 
 5639.00000  -999.250     9.5079     .0007 -999.250    47.8494     4.0166    3.6863    3.8258    2.5881 
 5639.50000  -999.250     9.5280     .0000 -999.250    36.7237     3.5486    3.2238    3.9273    2.5659 
 5640.00000  -999.250     9.5573    -.0019 -999.250    33.4192     3.5274    3.3828    3.9276    2.5351 
 5640.50000  -999.250     9.5890    -.0056 -999.250    33.2838     3.3709    3.2733    3.8139    2.5119 
 5641.00000  -999.250     9.6202    -.0079 -999.250    36.7088     3.0426    3.0441    3.6421    2.5004 
 5641.50000  -999.250     9.6410    -.0052 -999.250    39.9267     2.8268    2.8258    3.4654    2.4918 
 5642.00000  -999.250     9.6516    -.0025 -999.250    38.5080     2.7291    2.6231    3.3735    2.4703 
 5642.50000  -999.250     9.6732     .0002 -999.250    36.6452     2.8454    2.6492    3.3323    2.4506 
 5643.00000  -999.250     9.7076     .0029 -999.250    37.3711     3.8183    3.4413    3.3053    2.4545 
 5643.50000  -999.250     9.7036     .0055 -999.250    38.4417     5.2096    4.4702    3.4204    2.4628 
 5644.00000  -999.250     9.6854     .0102 -999.250    48.5281     7.0835    5.8069    3.7327    2.4750 
 5644.50000  -999.250     9.6673     .0142 -999.250    77.0885     8.8814    7.5811    3.8819    2.4878 
 5645.00000  -999.250     9.6224     .0165 -999.250   122.6015     9.1396    7.4594    3.5525    2.5044 
 5645.50000  -999.250     9.5071     .0215 -999.250   166.7315     8.7737    6.7276    3.0703    2.4870 
 5646.00000  -999.250     9.4274     .0282 -999.250   184.7012     8.5709    6.1572    2.8405    2.4473 
 5646.50000  -999.250     9.2929     .0358 -999.250   171.6104    10.7432    6.9521    2.7524    2.4486 
 5647.00000  -999.250     9.1541     .0465 -999.250   142.7978    13.6098    8.8024    2.7450    2.5072 
 5647.50000  -999.250     8.9223     .0524 -999.250   128.7836    20.2656   14.0345    2.8045    2.5360 
 5648.00000  -999.250     8.9281     .0518 -999.250   160.3687    24.7669   19.7004    2.8671    2.5173 
 5648.50000  -999.250     8.9874     .0469 -999.250   196.7107    18.8803   13.8216    2.8913    2.4930 
 5649.00000  -999.250     9.0467     .0400 -999.250   208.7511    14.5524   10.2835    2.8014    2.4694 
 5649.50000  -999.250     9.1060     .0317 -999.250   214.4880    13.6071    9.1183    2.7010    2.4223 
 5650.00000  -999.250     9.1135     .0281 -999.250   211.6997    13.0168    8.9641    2.6782    2.3823 
 5650.50000  -999.250     9.1063     .0248 -999.250   202.3295    12.5536    8.6452    2.6781    2.3856 
 5651.00000  -999.250     9.1063     .0222 -999.250   194.5297    12.0801    8.6292    2.6948    2.4007 
 5651.50000  -999.250     9.0981     .0231 -999.250   186.1113    10.8189    7.3390    2.7210    2.4098 
 5652.00000  -999.250     9.0758     .0231 -999.250   185.2552     9.9769    6.8311    2.6835    2.4123 
 5652.50000  -999.250     9.0534     .0210 -999.250   194.1363    10.9425    7.2467    2.5837    2.4055 
 5653.00000  -999.250     9.0523     .0194 -999.250   206.7678    13.7604    8.7217    2.5246    2.3968 
 5653.50000  -999.250     9.1463     .0200 -999.250   205.4936    15.5465   12.1965    2.4979    2.3917 
 5654.00000  -999.250     9.2482     .0205 -999.250   200.1908     8.7138    7.3654    2.4780    2.3867 
 5654.50000  -999.250     9.3114     .0208 -999.250   193.6646     4.7034    3.3876    2.5252    2.3835 
 5655.00000  -999.250     9.5276     .0191 -999.250   156.3621     2.5869    1.7044    2.9421    2.3763 
 5655.50000  -999.250     9.7409     .0110 -999.250    97.7912     1.4837    1.0815    3.4814    2.3567 
 5656.00000  -999.250     9.8018     .0044 -999.250    56.0504     1.2856     .9778    4.1006    2.3333 
 5656.50000  -999.250     9.8718    -.0019 -999.250    42.8049     1.2577    1.0197    4.4564    2.3174 
