# LAS WORX (tm) v17.01.12 Header Hash (44511) Data Hash (251473119) DO NOT REMOVE THIS LINE
# Original File Owner: ANADARKO\gwm835 (User)
#
~VERSION INFORMATION SECTION
VERS. 2.0 : CWLS LOG ASCII STANDARD-VERSION 2.0
WRAP. NO  : ONE LINE PER DEPTH STEP
#
#MNEM UNIT         VALUE/NAME             DESCRIPTION  
#---- ---- --------------------------   ---------------
~WELL INFORMATION SECTION
STRT.F                     190.00000 : TOP DEPTH
STOP.F                   16132.00000 : BOTTOM DEPTH
STEP.F                       0.50000 : DEPTH INCREMENT
NULL.                       -999.250 : NULL VALUE
API .                 42495335780000 : WELL API
CNTY.                        WINKLER : COUNTY
COMP.                 XTO ENERGY INC : OPERATOR
EGL .                           2826 : GROUND LEVEL
EKB .                           2849 : KB ELEVATION
EPD .                            0.0 : ELEV PERM DATUM
FLD .                        WINKLER : FIELD NAME
LAT .                       31.73723 : SURF. LATITUDE
LMF .                             KB : LOGS MEAS FROM
LON .                     -103.26065 : SURF. LONGITUDE
SPUD.                     2014/09/13 : SPUD DATE
STAT.                             TX : STATE
UWI .                 42495335780000 : UWI
WELL.      UNIVERSITY BLOCK 21 1804H : NAME
#
# MNEM   UNIT   API CODES                     DESCRIPTION                 
#------- ---- -------------   --------------------------------------------
#=========                                        ========    == ===========
~CURVE INFORMATION SECTION
DEPT   .F     00 001 00 00 : 1  DEPTH
RAW_RESA34.OHMM               : 2  ARC ATTENUATION RESISTIVITY 34 INCH SPAC (Original mnemonic = A34H)
RAW_CALX.IN                 : 4  CALIPER FROM DENSITY LOG (Original mnemonic = CALD)
RAW_DRHO.G/CC               : 5  DENSITY CORRECTION (Original mnemonic = DCOR)
RAW_GR .GAPI               : 7  GAMMA RAY (Original mnemonic = GR)
RAW_GR .GAPI               : 8  GAMMA RAY FROM DENSITY LOG (Original mnemonic = GRD)
RAW_LLD.OHMM               : 9  LATEROLOG DEEP RESISTIVITY (Original mnemonic = LLD)
RAW_LLS.OHMM               : 10  LATEROLOG SHALLOW RESISTIVITY (Original mnemonic = LLS)
RAW_PEF.B/E                : 15  PHOTOELECTRIC CROSS SECTION (Original mnemonic = PE)
RAW_RHOB.G/CC               : 16  BULK DENSITY (Original mnemonic = RHOB)
#
#MNEM UNIT  VALUE/NAME         DESCRIPTION    
#---- ---- -------------   -------------------
~PARAMETERS INFORMATION SECTION
LNAM.         COMPOSITE : NAME
LTYP.          PURCHASE : LOG TYPE
LVSN.                 1 : LOG VERSION
BHT .DEGF          0723 : BH TEMP
BLI .FT        14211.92 : BOTTOM DEPTH LOGGED
BHIS.                RC : BRIEF HISTORY
CLNT.               TGS : CLIENT
DMF .                DF : DRILL MEAS FROM
FHIS.      RAW-LAS/COPY : FULL HISTORY
EKB .FT            2849 : KB ELEVATION
LMF .                DF : LOGS MEAS FROM
DATE.                10 : RUN DATE
TLI .FT        11222.42 : TOP DEPTH LOGGED
#
#   DEPT     RAW_RESA34 RAW_CALX  RAW_DRHO   RAW_GR    RAW_GR    RAW_LLD    RAW_LLS   RAW_PEF  RAW_RHOB  
#----------- ---------- --------- --------- --------- --------- ---------- --------- --------- --------- 
~ASCII LOG DATA
# ...
 5195.00000  -999.250     9.7205     .0107 -999.250    89.9172   364.3479    7.3370    2.8204    2.5378 
 5195.50000  -999.250     9.7842     .0073 -999.250    84.4333   227.7675    5.6390    2.9176    2.5239 
 5196.00000  -999.250     9.8210     .0074 -999.250    73.3030   180.5621    4.9275    2.8917    2.5101 
 5196.50000  -999.250     9.8641     .0095 -999.250    65.1976   156.7788    4.5770    2.8686    2.4991 
 5197.00000  -999.250     9.9141     .0117 -999.250    64.0540   137.3142    4.2813    2.7930    2.4889 
 5197.50000  -999.250     9.9697     .0109 -999.250    59.1750   140.4336    4.4034    2.6845    2.4806 
 5198.00000  -999.250    10.0252     .0109 -999.250    50.5057   143.1211    4.9349    2.6442    2.4695 
 5198.50000  -999.250    10.0699     .0120 -999.250    46.5307   133.3625    5.5327    2.7077    2.4721 
 5199.00000  -999.250    10.0976     .0118 -999.250    46.5767   118.4000    5.2658    2.7923    2.4793 
 5199.50000  -999.250    10.1461     .0113 -999.250    45.1917   105.4879    4.9472    2.8376    2.4837 
 5200.00000  -999.250    10.1871     .0105 -999.250    44.8388    89.9145    4.5969    2.8006    2.4623 
 5200.50000  -999.250    10.2263     .0086 -999.250    48.5732    79.8910    4.3561    2.7651    2.4536 
 5201.00000  -999.250    10.2892     .0064 -999.250    52.2484    74.6245    4.4241    2.7732    2.4511 
 5201.50000  -999.250    10.3153     .0075 -999.250    53.5068    56.3090    4.2895    2.8126    2.4449 
 5202.00000  -999.250    10.3594     .0085 -999.250    52.7257    42.3514    3.7628    2.8233    2.4325 
 5202.50000  -999.250    10.3826     .0096 -999.250    50.5409    29.7518    3.2919    2.8264    2.4196 
 5203.00000  -999.250    10.3909     .0093 -999.250    53.7023    22.0783    2.9220    2.9770    2.4049 
 5203.50000  -999.250    10.4676     .0076 -999.250    56.4610    15.7627    2.8241    3.5110    2.3907 
 5204.00000  -999.250    10.4928     .0045 -999.250    54.6138    14.1259    3.0405    4.0102    2.3805 
 5204.50000  -999.250    10.5176     .0036 -999.250    54.8731    15.3109    3.2302    3.7657    2.3979 
 5205.00000  -999.250    10.5316     .0047 -999.250    55.4533    16.6425    3.3612    3.2527    2.4200 
 5205.50000  -999.250    10.5438     .0098 -999.250    52.0423    17.2463    3.3950    2.8191    2.4280 
 5206.00000  -999.250    10.5485     .0164 -999.250    50.4150    17.2865    3.4132    2.6679    2.4191 
 5206.50000  -999.250    10.5481     .0247 -999.250    54.4449    18.8304    3.6431    2.7348    2.4363 
 5207.00000  -999.250    10.5399     .0278 -999.250    59.4687    19.2363    3.8419    2.9062    2.4757 
 5207.50000  -999.250    10.5162     .0305 -999.250    57.1282    18.7172    3.6731    2.9883    2.5058 
 5208.00000  -999.250    10.4090     .0325 -999.250    54.9801    17.7007    3.3793    2.9713    2.5119 
 5208.50000  -999.250    10.3460     .0340 -999.250    56.3752    17.8017    3.2287    2.9008    2.4965 
 5209.00000  -999.250    10.3084     .0338 -999.250    57.9037    18.4409    3.1427    2.8258    2.4713 
 5209.50000  -999.250    10.2077     .0326 -999.250    62.9728    22.4415    3.5592    2.7814    2.4597 
 5210.00000  -999.250    10.1069     .0320 -999.250    71.5483    32.7652    4.7505    2.8562    2.4633 
 5210.50000  -999.250     9.9832     .0321 -999.250    79.8529    45.5408    7.3945    2.9288    2.4850 
 5211.00000  -999.250     9.8471     .0340 -999.250    88.4957    42.0484    8.2624    2.9647    2.5315 
 5211.50000  -999.250     9.7964     .0318 -999.250    93.5666    29.8812    6.1534    2.9499    2.5762 
 5212.00000  -999.250     9.8645     .0267 -999.250    88.5150    22.3329    4.0397    2.8445    2.5596 
 5212.50000  -999.250     9.9567     .0213 -999.250    79.2385    16.7665    3.0009    2.6598    2.5047 
 5213.00000  -999.250    10.0343     .0202 -999.250    68.9582    14.1988    2.4955    2.5856    2.4609 
 5213.50000  -999.250    10.0877     .0193 -999.250    64.0029    13.4612    2.4551    2.5742    2.4414 
 5214.00000  -999.250    10.1224     .0204 -999.250    65.4607    12.8365    2.4611    2.5586    2.4264 
 5214.50000  -999.250    10.1571     .0226 -999.250    73.5564    12.3907    2.4073    2.5953    2.4189 
 5215.00000  -999.250    10.1863     .0271 -999.250    74.9232    11.7840    2.3367    2.6889    2.4165 
 5215.50000  -999.250    10.2319     .0319 -999.250    65.6746    11.2168    2.2068    2.9611    2.4040 
 5216.00000  -999.250    10.2831     .0311 -999.250    55.5559    10.9927    2.2242    3.3531    2.3918 
 5216.50000  -999.250    10.3166     .0288 -999.250    51.5970    11.5153    2.3756    3.7106    2.3880 
 5217.00000  -999.250    10.3307     .0259 -999.250    54.0185    11.9384    2.5347    3.5984    2.3939 
 5217.50000  -999.250    10.3526     .0265 -999.250    54.9757    12.6842    2.6918    3.2251    2.4152 
 5218.00000  -999.250    10.3861     .0286 -999.250    54.9232    12.7991    2.7961    3.0099    2.4279 
 5218.50000  -999.250    10.4102     .0320 -999.250    58.9656    12.3668    2.7464    2.9921    2.4312 
 5219.00000  -999.250    10.4219     .0329 -999.250    59.6549    11.9342    2.6903    3.4512    2.4400 
 5219.50000  -999.250    10.4202     .0352 -999.250    58.3147    11.4917    2.5931    4.2145    2.4480 
 5220.00000  -999.250    10.4138     .0349 -999.250    62.0594    10.7657    2.4950    5.0303    2.4307 
 5220.50000  -999.250    10.4061     .0337 -999.250    60.1506    10.6875    2.4821    5.3907    2.4175 
 5221.00000  -999.250    10.3904     .0330 -999.250    59.1270    10.6086    2.5208    5.2429    2.4200 
 5221.50000  -999.250    10.4446     .0297 -999.250    62.1437    10.1399    2.4689    4.9778    2.4218 
 5222.00000  -999.250    10.4832     .0255 -999.250    60.8960     9.4023    2.3454    4.6234    2.4336 
 5222.50000  -999.250    10.5094     .0210 -999.250    57.1391     8.7183    2.2193    4.0991    2.4356 
 5223.00000  -999.250    10.5161     .0160 -999.250    55.3526     8.4214    2.1135    3.6461    2.4119 
 5223.50000  -999.250    10.5485     .0214 -999.250    52.4284     8.5917    2.1206    3.3694    2.3888 
 5224.00000  -999.250    10.5966     .0272 -999.250    50.5019     9.0204    2.3053    3.2019    2.3940 
 5224.50000  -999.250    10.6481     .0302 -999.250    52.6645     9.6246    2.4801    3.0051    2.4111 
 5225.00000  -999.250    10.7109     .0269 -999.250    57.3633    10.0154    2.5748    2.7792    2.4177 
 5225.50000  -999.250    10.7491     .0220 -999.250    60.5825    10.3337    2.6644    2.6729    2.4244 
 5226.00000  -999.250    10.7902     .0155 -999.250    60.0989    10.3709    2.7344    2.6373    2.4275 
 5226.50000  -999.250    10.8332     .0099 -999.250    56.8724    10.4063    2.7320    2.6228    2.4225 
 5227.00000  -999.250    10.8548     .0062 -999.250    55.8023    10.4648    2.7019    2.6749    2.4167 
 5227.50000  -999.250    10.8760     .0059 -999.250    57.6831    10.4027    2.6654    2.8514    2.4163 
 5228.00000  -999.250    10.8936     .0054 -999.250    58.4307    10.0949    2.5611    2.9383    2.4192 
 5228.50000  -999.250    10.9064     .0038 -999.250    60.2115     9.7403    2.4581    2.8415    2.4234 
 5229.00000  -999.250    10.9311     .0022 -999.250    61.8446     9.4718    2.3713    2.6605    2.4278 
 5229.50000  -999.250    10.9645     .0006 -999.250    60.3810     9.2504    2.2900    2.6073    2.4298 
 5230.00000  -999.250    11.0016    -.0009 -999.250    56.8011     8.9646    2.2171    2.6365    2.4212 
 5230.50000  -999.250    11.0387    -.0008 -999.250    54.0762     8.6473    2.1532    2.6690    2.4096 
 5231.00000  -999.250    11.0758     .0000 -999.250    53.6339     8.4115    2.0944    2.7119    2.3996 
 5231.50000  -999.250    11.1176     .0028 -999.250    50.1232     8.2673    2.0985    2.8351    2.3974 
 5232.00000  -999.250    11.1424     .0056 -999.250    48.3478     8.1513    2.1590    3.0194    2.4034 
 5232.50000  -999.250    11.1468     .0083 -999.250    52.9702     8.1663    2.1679    3.1251    2.4024 
 5233.00000  -999.250    11.1575     .0102 -999.250    56.9941     8.2532    2.1796    3.0960    2.4068 
