# LAS WORX (tm) v17.01.12 Header Hash (44511) Data Hash (251473119) DO NOT REMOVE THIS LINE
# Original File Owner: ANADARKO\gwm835 (User)
#
~VERSION INFORMATION SECTION
VERS. 2.0 : CWLS LOG ASCII STANDARD-VERSION 2.0
WRAP. NO  : ONE LINE PER DEPTH STEP
#
#MNEM UNIT         VALUE/NAME             DESCRIPTION  
#---- ---- --------------------------   ---------------
~WELL INFORMATION SECTION
STRT.F                     190.00000 : TOP DEPTH
STOP.F                   16132.00000 : BOTTOM DEPTH
STEP.F                       0.50000 : DEPTH INCREMENT
NULL.                       -999.250 : NULL VALUE
API .                 42495335780000 : WELL API
CNTY.                        WINKLER : COUNTY
COMP.                 XTO ENERGY INC : OPERATOR
EGL .                           2826 : GROUND LEVEL
EKB .                           2849 : KB ELEVATION
EPD .                            0.0 : ELEV PERM DATUM
FLD .                        WINKLER : FIELD NAME
LAT .                       31.73723 : SURF. LATITUDE
LMF .                             KB : LOGS MEAS FROM
LON .                     -103.26065 : SURF. LONGITUDE
SPUD.                     2014/09/13 : SPUD DATE
STAT.                             TX : STATE
UWI .                 42495335780000 : UWI
WELL.      UNIVERSITY BLOCK 21 1804H : NAME
#
# MNEM   UNIT   API CODES                     DESCRIPTION                 
#------- ---- -------------   --------------------------------------------
#=========                                        ========    == ===========
~CURVE INFORMATION SECTION
DEPT   .F     00 001 00 00 : 1  DEPTH
RAW_RESA34.OHMM               : 2  ARC ATTENUATION RESISTIVITY 34 INCH SPAC (Original mnemonic = A34H)
RAW_CALX.IN                 : 4  CALIPER FROM DENSITY LOG (Original mnemonic = CALD)
RAW_DRHO.G/CC               : 5  DENSITY CORRECTION (Original mnemonic = DCOR)
RAW_GR .GAPI               : 7  GAMMA RAY (Original mnemonic = GR)
RAW_GR .GAPI               : 8  GAMMA RAY FROM DENSITY LOG (Original mnemonic = GRD)
RAW_LLD.OHMM               : 9  LATEROLOG DEEP RESISTIVITY (Original mnemonic = LLD)
RAW_LLS.OHMM               : 10  LATEROLOG SHALLOW RESISTIVITY (Original mnemonic = LLS)
RAW_PEF.B/E                : 15  PHOTOELECTRIC CROSS SECTION (Original mnemonic = PE)
RAW_RHOB.G/CC               : 16  BULK DENSITY (Original mnemonic = RHOB)
#
#MNEM UNIT  VALUE/NAME         DESCRIPTION    
#---- ---- -------------   -------------------
~PARAMETERS INFORMATION SECTION
LNAM.         COMPOSITE : NAME
LTYP.          PURCHASE : LOG TYPE
LVSN.                 1 : LOG VERSION
BHT .DEGF          0723 : BH TEMP
BLI .FT        14211.92 : BOTTOM DEPTH LOGGED
BHIS.                RC : BRIEF HISTORY
CLNT.               TGS : CLIENT
DMF .                DF : DRILL MEAS FROM
FHIS.      RAW-LAS/COPY : FULL HISTORY
EKB .FT            2849 : KB ELEVATION
LMF .                DF : LOGS MEAS FROM
DATE.                10 : RUN DATE
TLI .FT        11222.42 : TOP DEPTH LOGGED
#
#   DEPT     RAW_RESA34 RAW_CALX  RAW_DRHO   RAW_GR    RAW_GR    RAW_LLD    RAW_LLS   RAW_PEF  RAW_RHOB  
#----------- ---------- --------- --------- --------- --------- ---------- --------- --------- --------- 
~ASCII LOG DATA
# ...
 7274.00000  -999.250    10.3442    -.0129 -999.250    44.7323     1.8612    1.2704    5.6041    2.3583 
 7274.50000  -999.250    10.3577    -.0180 -999.250    45.5960     2.9628    1.7237    5.5961    2.3749 
 7275.00000  -999.250    10.3654    -.0228 -999.250    45.1161     4.2671    2.9321    5.3177    2.4389 
 7275.50000  -999.250    10.4007    -.0275 -999.250    39.2130     4.3439    3.5620    4.6278    2.5085 
 7276.00000  -999.250    10.4631    -.0388 -999.250    33.1644     3.2500    2.4412    3.7414    2.5664 
 7276.50000  -999.250    10.5207    -.0489 -999.250    35.8617     2.1514    1.6218    3.4381    2.5299 
 7277.00000  -999.250    10.6007    -.0564 -999.250    40.0585     1.7512    1.3310    3.7552    2.4261 
 7277.50000  -999.250    10.6519    -.0481 -999.250    40.1005     1.8537    1.3803    4.4219    2.3231 
 7278.00000  -999.250    10.6838    -.0401 -999.250    42.6825     1.9271    1.5278    5.2000    2.3018 
 7278.50000  -999.250    10.7158    -.0348 -999.250    47.5339     1.9447    1.5135    5.3505    2.3125 
 7279.00000  -999.250    10.7277    -.0260 -999.250    46.3576     1.8357    1.4063    5.3336    2.3277 
 7279.50000  -999.250    10.7676    -.0148 -999.250    44.4725     1.5768    1.2295    5.1584    2.3343 
 7280.00000  -999.250    10.8153    -.0084 -999.250    45.3692     1.4110    1.1357    4.9138    2.3457 
 7280.50000  -999.250    10.8545    -.0044 -999.250    47.0229     1.3325    1.0937    4.6389    2.3648 
 7281.00000  -999.250    10.8896    -.0031 -999.250    46.9967     1.3726    1.1060    4.2044    2.3597 
 7281.50000  -999.250    10.9169     .0003 -999.250    43.9306     1.4887    1.1455    3.7699    2.3406 
 7282.00000  -999.250    10.9277     .0041 -999.250    45.0540     1.9287    1.4538    3.4546    2.3444 
 7282.50000  -999.250    10.9119     .0078 -999.250    55.7445     2.5669    1.8479    3.1736    2.3676 
 7283.00000  -999.250    10.8111     .0133 -999.250    61.1745     2.8624    2.1195    3.0532    2.3737 
 7283.50000  -999.250    10.4727     .0245 -999.250    55.3837     3.0390    2.3517    3.1271    2.3961 
 7284.00000  -999.250    10.2634     .0230 -999.250    47.2922     2.7393    2.0526    3.1593    2.4360 
 7284.50000  -999.250    10.1983     .0207 -999.250    44.4088     2.2854    1.7234    3.0626    2.4837 
 7285.00000  -999.250    10.2144     .0156 -999.250    43.7542     2.3335    1.6741    3.0130    2.4989 
 7285.50000  -999.250    10.2242     .0142 -999.250    45.3919     2.5111    1.8207    3.4810    2.4630 
 7286.00000  -999.250    10.2364     .0048 -999.250    48.7052     2.5410    1.9801    4.0329    2.4271 
 7286.50000  -999.250    10.2542    -.0049 -999.250    50.9768     2.4951    1.9968    4.2324    2.4371 
 7287.00000  -999.250    10.2747    -.0112 -999.250    52.6628     2.2849    1.7907    4.0631    2.4550 
 7287.50000  -999.250    10.3058    -.0117 -999.250    53.1143     2.0354    1.5654    3.9095    2.4431 
 7288.00000  -999.250    10.3491    -.0124 -999.250    52.3810     1.8365    1.4811    3.6152    2.4069 
 7288.50000  -999.250    10.3820    -.0128 -999.250    51.9089     1.8520    1.4852    3.2232    2.3891 
 7289.00000  -999.250    10.4037    -.0121 -999.250    52.5998     1.8493    1.4943    3.0228    2.3933 
 7289.50000  -999.250    10.4252    -.0097 -999.250    50.7716     1.9642    1.5809    2.8677    2.4006 
 7290.00000  -999.250    10.4292    -.0075 -999.250    46.8470     2.0492    1.6857    2.7918    2.4053 
 7290.50000  -999.250    10.4136    -.0061 -999.250    46.4152     2.1913    1.8284    2.7802    2.3996 
 7291.00000  -999.250    10.3506    -.0035 -999.250    52.9803     2.4638    2.0681    2.7144    2.4157 
 7291.50000  -999.250    10.2855    -.0042 -999.250    58.9019     2.7831    2.2985    2.5958    2.4316 
 7292.00000  -999.250    10.2202    -.0051 -999.250    61.7536     2.9756    2.5321    2.5618    2.4406 
 7292.50000  -999.250    10.1564    -.0059 -999.250    62.7605     3.3484    2.8429    2.5568    2.4471 
 7293.00000  -999.250    10.0272    -.0115 -999.250    60.2135     3.5099    3.1494    2.4914    2.4547 
 7293.50000  -999.250     9.8754    -.0171 -999.250    57.9769     3.1956    2.8992    2.4102    2.4638 
 7294.00000  -999.250     9.8126    -.0191 -999.250    57.3239     3.3221    3.0728    2.4217    2.4536 
 7294.50000  -999.250     9.7430    -.0186 -999.250    54.2536     3.4499    3.1788    2.4749    2.4341 
 7295.00000  -999.250     9.6734    -.0129 -999.250    50.8927     3.6105    3.3893    2.5174    2.4415 
 7295.50000  -999.250     9.6196    -.0050 -999.250    54.9641     4.1336    3.6197    2.5190    2.4599 
 7296.00000  -999.250     9.5770     .0016 -999.250    60.1901     5.3949    4.4002    2.5234    2.4792 
 7296.50000  -999.250     9.5236     .0092 -999.250    59.1407     7.5800    6.2015    2.5566    2.5015 
 7297.00000  -999.250     9.4347     .0146 -999.250    55.7085    10.6781    9.2699    2.7204    2.5285 
 7297.50000  -999.250     9.3457     .0140 -999.250    52.1914    15.1109   13.0451    2.8872    2.5506 
 7298.00000  -999.250     9.2568     .0126 -999.250    48.8643    17.9838   15.4021    2.8898    2.5577 
 7298.50000  -999.250     9.1763     .0080 -999.250    47.8120    19.7057   16.2254    2.7863    2.5549 
 7299.00000  -999.250     9.1386     .0045 -999.250    51.3334    23.8379   18.2008    2.5940    2.5525 
 7299.50000  -999.250     9.1065     .0030 -999.250    60.8732    35.0277   24.3939    2.5376    2.5436 
 7300.00000  -999.250     9.1062     .0016 -999.250    78.4477    56.8015   38.0576    2.7192    2.5334 
 7300.50000  -999.250     9.1013     .0001 -999.250    96.2431   101.6975   80.1055    2.9945    2.5253 
 7301.00000  -999.250     9.0669    -.0007 -999.250    98.0013   290.4307  212.0298    3.1817    2.5232 
 7301.50000  -999.250     9.0933     .0010 -999.250    85.7762   505.1001  340.3443    3.1814    2.5387 
 7302.00000  -999.250     9.0699     .0038 -999.250    80.0272   492.9062  342.5760    3.1608    2.5436 
 7302.50000  -999.250     9.0625     .0079 -999.250    83.6930   471.9086  326.0643    3.1421    2.5413 
 7303.00000  -999.250     9.0684     .0114 -999.250    97.3784   553.8394  349.4062    3.0728    2.5413 
 7303.50000  -999.250     9.0795     .0118 -999.250   105.9474   566.7823  388.8023    2.9892    2.5477 
 7304.00000  -999.250     9.0963     .0085 -999.250   103.5343   446.7990  352.1693    3.1313    2.5714 
 7304.50000  -999.250     9.1189     .0049 -999.250   103.5172   251.7694  279.4761    3.4046    2.6005 
 7305.00000  -999.250     9.1357     .0011 -999.250   120.0887    53.6202   85.1394    3.4669    2.5853 
 7305.50000  -999.250     9.1913    -.0027 -999.250   139.7702    23.2026   18.0733    3.1699    2.5447 
 7306.00000  -999.250     9.2270    -.0020 -999.250   125.7817    12.3196   10.3345    2.8679    2.5188 
 7306.50000  -999.250     9.2781    -.0004 -999.250    94.5343     9.2453    7.7239    2.7045    2.5088 
 7307.00000  -999.250     9.3362    -.0004 -999.250    67.1537     8.4114    6.4733    2.5473    2.4998 
 7307.50000  -999.250     9.3799    -.0041 -999.250    60.4758     8.1574    6.6913    2.4909    2.5021 
 7308.00000  -999.250     9.3964    -.0080 -999.250    58.9739     8.2841    7.1217    2.5310    2.5135 
 7308.50000  -999.250     9.4121    -.0119 -999.250    51.4939     9.8137    8.4543    2.6229    2.5191 
 7309.00000  -999.250     9.4278    -.0152 -999.250    48.3190     9.0512    8.4800    2.6760    2.5252 
 7309.50000  -999.250     9.4435    -.0152 -999.250    52.5304     7.1042    6.6939    2.7326    2.5361 
 7310.00000  -999.250     9.4592    -.0140 -999.250    54.4806     6.1583    5.8453    2.7541    2.5375 
 7310.50000  -999.250     9.4963    -.0123 -999.250    56.2521     5.4078    5.0432    2.6737    2.5115 
 7311.00000  -999.250     9.4996    -.0042 -999.250    59.1736     4.8949    4.3232    2.5178    2.5032 
 7311.50000  -999.250     9.4911     .0038 -999.250    61.1185     4.5139    4.1780    2.4639    2.5212 
 7312.00000  -999.250     9.4879     .0091 -999.250    59.5426     4.7958    4.2411    2.4443    2.5287 
