# LAS WORX (tm) v17.01.12 Header Hash (44511) Data Hash (251473119) DO NOT REMOVE THIS LINE
# Original File Owner: ANADARKO\gwm835 (User)
#
~VERSION INFORMATION SECTION
VERS. 2.0 : CWLS LOG ASCII STANDARD-VERSION 2.0
WRAP. NO  : ONE LINE PER DEPTH STEP
#
#MNEM UNIT         VALUE/NAME             DESCRIPTION  
#---- ---- --------------------------   ---------------
~WELL INFORMATION SECTION
STRT.F                     190.00000 : TOP DEPTH
STOP.F                   16132.00000 : BOTTOM DEPTH
STEP.F                       0.50000 : DEPTH INCREMENT
NULL.                       -999.250 : NULL VALUE
API .                 42495335780000 : WELL API
CNTY.                        WINKLER : COUNTY
COMP.                 XTO ENERGY INC : OPERATOR
EGL .                           2826 : GROUND LEVEL
EKB .                           2849 : KB ELEVATION
EPD .                            0.0 : ELEV PERM DATUM
FLD .                        WINKLER : FIELD NAME
LAT .                       31.73723 : SURF. LATITUDE
LMF .                             KB : LOGS MEAS FROM
LON .                     -103.26065 : SURF. LONGITUDE
SPUD.                     2014/09/13 : SPUD DATE
STAT.                             TX : STATE
UWI .                 42495335780000 : UWI
WELL.      UNIVERSITY BLOCK 21 1804H : NAME
#
# MNEM   UNIT   API CODES                     DESCRIPTION                 
#------- ---- -------------   --------------------------------------------
#=========                                        ========    == ===========
~CURVE INFORMATION SECTION
DEPT   .F     00 001 00 00 : 1  DEPTH
RAW_RESA34.OHMM               : 2  ARC ATTENUATION RESISTIVITY 34 INCH SPAC (Original mnemonic = A34H)
RAW_CALX.IN                 : 4  CALIPER FROM DENSITY LOG (Original mnemonic = CALD)
RAW_DRHO.G/CC               : 5  DENSITY CORRECTION (Original mnemonic = DCOR)
RAW_GR .GAPI               : 7  GAMMA RAY (Original mnemonic = GR)
RAW_GR .GAPI               : 8  GAMMA RAY FROM DENSITY LOG (Original mnemonic = GRD)
RAW_LLD.OHMM               : 9  LATEROLOG DEEP RESISTIVITY (Original mnemonic = LLD)
RAW_LLS.OHMM               : 10  LATEROLOG SHALLOW RESISTIVITY (Original mnemonic = LLS)
RAW_PEF.B/E                : 15  PHOTOELECTRIC CROSS SECTION (Original mnemonic = PE)
RAW_RHOB.G/CC               : 16  BULK DENSITY (Original mnemonic = RHOB)
#
#MNEM UNIT  VALUE/NAME         DESCRIPTION    
#---- ---- -------------   -------------------
~PARAMETERS INFORMATION SECTION
LNAM.         COMPOSITE : NAME
LTYP.          PURCHASE : LOG TYPE
LVSN.                 1 : LOG VERSION
BHT .DEGF          0723 : BH TEMP
BLI .FT        14211.92 : BOTTOM DEPTH LOGGED
BHIS.                RC : BRIEF HISTORY
CLNT.               TGS : CLIENT
DMF .                DF : DRILL MEAS FROM
FHIS.      RAW-LAS/COPY : FULL HISTORY
EKB .FT            2849 : KB ELEVATION
LMF .                DF : LOGS MEAS FROM
DATE.                10 : RUN DATE
TLI .FT        11222.42 : TOP DEPTH LOGGED
#
#   DEPT     RAW_RESA34 RAW_CALX  RAW_DRHO   RAW_GR    RAW_GR    RAW_LLD    RAW_LLS   RAW_PEF  RAW_RHOB  
#----------- ---------- --------- --------- --------- --------- ---------- --------- --------- --------- 
~ASCII LOG DATA
# ...
10585.00000  -999.250     8.7447    -.0001 -999.250    22.2115  1408.5236 1138.4476    3.7064    2.5968 
10585.50000  -999.250     8.7449     .0023 -999.250    25.8938  1321.8733 1053.2288    3.7972    2.6198 
10586.00000  -999.250     8.7423     .0047 -999.250    35.2334  1367.9351 1080.0508    3.9697    2.6376 
10586.50000  -999.250     8.7415     .0072 -999.250    33.7479  1392.5973 1116.9352    4.0599    2.6352 
10587.00000  -999.250     8.7484     .0059 -999.250    29.0947  1360.0629 1065.3458    3.8007    2.6254 
10587.50000  -999.250     8.7611     .0016 -999.250    26.9356  1347.2996 1176.0215    3.5893    2.6198 
10588.00000  -999.250     8.7654    -.0029 -999.250    25.7506  1305.4452 1032.5935    3.7576    2.6121 
10588.50000  -999.250     8.7654    -.0047 -999.250    25.2485  1307.9861  993.7546    3.9118    2.5972 
10589.00000  -999.250     8.7640    -.0047 -999.250    27.2884  1444.2019 1160.6201    4.0115    2.5956 
10589.50000  -999.250     8.7571    -.0031 -999.250    28.2684  1419.2343 1241.9443    4.1153    2.6036 
10590.00000  -999.250     8.7596    -.0015 -999.250    24.8909   812.0631 1124.7009    4.1353    2.6055 
10590.50000  -999.250     8.7649    -.0002 -999.250    20.2153   377.8576  431.0744    4.0601    2.6052 
10591.00000  -999.250     8.7670     .0011 -999.250    25.4537   192.9041  162.7709    3.9611    2.6034 
10591.50000  -999.250     8.7672     .0024 -999.250    41.7771   150.7083  143.3418    3.8950    2.5947 
10592.00000  -999.250     8.7674     .0020 -999.250    57.3343   150.1302  142.5050    3.8177    2.5838 
10592.50000  -999.250     8.7911    -.0012 -999.250    58.1922   171.0031  180.0393    3.7511    2.5668 
10593.00000  -999.250     8.7882    -.0051 -999.250    46.5742   195.5570  248.3835    3.7267    2.5620 
10593.50000  -999.250     8.7744    -.0111 -999.250    34.5615   151.9638  204.9558    3.7423    2.5735 
10594.00000  -999.250     8.7631    -.0164 -999.250    37.0007   103.3958  114.1153    3.6027    2.5720 
10594.50000  -999.250     8.7777    -.0212 -999.250    46.5674    92.7551   91.3311    3.3668    2.5437 
10595.00000  -999.250     8.7903    -.0220 -999.250    59.5923    97.7905   92.0749    3.1948    2.5124 
10595.50000  -999.250     8.7663    -.0184 -999.250    60.2931   146.3709  129.0921    3.2524    2.5098 
10596.00000  -999.250     8.7749    -.0114 -999.250    47.8213   268.2133  234.3702    3.4435    2.5335 
10596.50000  -999.250     8.7808    -.0067 -999.250    38.8830   449.8318  395.7574    3.7075    2.5597 
10597.00000  -999.250     8.7869    -.0037 -999.250    38.8670   599.8577  492.3345    3.9603    2.5777 
10597.50000  -999.250     8.7903    -.0028 -999.250    36.5528   840.2706  725.8586    4.0637    2.5825 
10598.00000  -999.250     8.7878    -.0014 -999.250    31.3544  1134.5780  980.4087    3.9381    2.5849 
10598.50000  -999.250     8.7908     .0000 -999.250    27.9713  1347.7988 1050.4200    3.8535    2.5858 
10599.00000  -999.250     8.8109     .0013 -999.250    23.8851  1447.8822 1101.0013    3.9074    2.5749 
10599.50000  -999.250     8.8136     .0025 -999.250    20.9815  1405.3545 1103.9470    3.9701    2.5620 
10600.00000  -999.250     8.8105    -.0028 -999.250    20.3064  1077.9840  942.2976    3.9413    2.5634 
10600.50000  -999.250     8.8074    -.0123 -999.250    20.6408   747.2403  615.0280    3.9203    2.5669 
10601.00000  -999.250     8.8036    -.0195 -999.250    24.3569   523.8450  444.8391    3.8535    2.5634 
10601.50000  -999.250     8.7971    -.0215 -999.250    29.4631   460.8048  375.1399    3.6919    2.5424 
10602.00000  -999.250     8.7984    -.0194 -999.250    34.4115   426.1992  388.8264    3.5599    2.5321 
10602.50000  -999.250     8.8038    -.0158 -999.250    34.5444   428.6857  436.5780    3.5529    2.5480 
10603.00000  -999.250     8.8034    -.0134 -999.250    30.7212   462.0468  469.2408    3.7717    2.5702 
10603.50000  -999.250     8.8039    -.0104 -999.250    29.6410   328.8947  459.1972    3.9072    2.5763 
10604.00000  -999.250     8.8114    -.0093 -999.250    31.7398   146.6615  237.7870    3.7456    2.5617 
10604.50000  -999.250     8.8149    -.0091 -999.250    35.8844    74.2607  101.0456    3.4898    2.5493 
10605.00000  -999.250     8.8185    -.0041 -999.250    45.6579    48.6866   55.4560    3.2702    2.5488 
10605.50000  -999.250     8.8221    -.0021 -999.250    67.8318    40.3402   41.3831    3.1585    2.5453 
10606.00000  -999.250     8.8251    -.0008 -999.250    81.5681    41.6959   43.9646    3.1506    2.5405 
10606.50000  -999.250     8.8289     .0001 -999.250    85.5499    51.6307   57.0189    3.2267    2.5561 
10607.00000  -999.250     8.8233    -.0006 -999.250    82.5533    77.8817   89.0115    3.4898    2.5677 
10607.50000  -999.250     8.8217    -.0029 -999.250    65.7857   105.2236  121.7423    3.6665    2.5512 
10608.00000  -999.250     8.8315    -.0107 -999.250    62.0411    95.5843  106.3027    3.5247    2.5099 
10608.50000  -999.250     8.8438    -.0144 -999.250    71.3323    73.5170   80.6570    3.3293    2.4833 
10609.00000  -999.250     8.8349    -.0218 -999.250    79.3319    56.7314   59.9884    3.1570    2.4652 
10609.50000  -999.250     8.8648    -.0267 -999.250    80.1938    54.8935   55.3298    3.0758    2.4591 
10610.00000  -999.250     8.8637    -.0261 -999.250    85.4543    56.2948   56.7727    3.0417    2.4523 
10610.50000  -999.250     8.8391    -.0249 -999.250    93.7735    57.7319   58.8527    3.0076    2.4422 
10611.00000  -999.250     8.8250    -.0235 -999.250    89.4820    72.9711   73.6357    3.0031    2.4319 
10611.50000  -999.250     8.8283    -.0232 -999.250    81.3038    79.8692   87.2059    2.9933    2.4364 
10612.00000  -999.250     8.8290    -.0229 -999.250    82.8277    73.7247   75.6083    2.9678    2.4391 
10612.50000  -999.250     8.8334    -.0229 -999.250    80.3585    72.3162   74.4195    2.9424    2.4597 
10613.00000  -999.250     8.8437    -.0234 -999.250    82.6445    68.5809   69.8418    2.9340    2.4788 
10613.50000  -999.250     8.8446    -.0230 -999.250    95.3878    71.7896   68.7355    2.9519    2.4777 
10614.00000  -999.250     8.8483    -.0195 -999.250   104.1870    95.2224   82.4868    3.0361    2.4722 
10614.50000  -999.250     8.8555    -.0151 -999.250    92.7882   111.1095   98.9470    3.1202    2.4913 
10615.00000  -999.250     8.8451    -.0070 -999.250    66.8805   147.8803  133.3242    3.3082    2.5363 
10615.50000  -999.250     8.8413    -.0060 -999.250    49.5592   159.2159  173.2611    3.4505    2.5780 
10616.00000  -999.250     8.8430    -.0050 -999.250    53.1268   129.5848  124.3485    3.3011    2.5592 
10616.50000  -999.250     8.8467    -.0041 -999.250    59.4233    98.1284   93.4360    3.0552    2.5337 
10617.00000  -999.250     8.8565    -.0035 -999.250    65.8472    76.2828   72.3194    2.9138    2.5426 
10617.50000  -999.250     8.8569    -.0036 -999.250    75.8011    65.7614   57.9632    3.0013    2.5511 
10618.00000  -999.250     8.8561    -.0038 -999.250    82.5497    58.7931   53.3485    3.1104    2.5395 
10618.50000  -999.250     8.8532    -.0039 -999.250    84.0083    54.5776   50.3844    3.2285    2.5280 
10619.00000  -999.250     8.8456    -.0052 -999.250    82.7152    54.5543   50.6379    3.3945    2.5351 
10619.50000  -999.250     8.8357    -.0069 -999.250    82.0230    59.9879   52.9914    3.4828    2.5358 
10620.00000  -999.250     8.8288    -.0073 -999.250    88.6434    75.6224   61.7481    3.4159    2.5237 
10620.50000  -999.250     8.8273    -.0057 -999.250    88.0896   110.8606   89.4792    3.3205    2.5272 
10621.00000  -999.250     8.8250    -.0038 -999.250    77.2335   172.8522  164.2419    3.3351    2.5346 
10621.50000  -999.250     8.8216    -.0041 -999.250    61.4070   177.1152  230.3383    3.3981    2.5272 
10622.00000  -999.250     8.8209    -.0052 -999.250    53.1150    84.2104  108.1328    3.4304    2.5206 
10622.50000  -999.250     8.8229    -.0060 -999.250    52.5265    63.4644   73.1448    3.4741    2.5223 
10623.00000  -999.250     8.8216    -.0060 -999.250    59.0774    59.0506   70.6821    3.6488    2.5169 
