# LAS WORX (tm) v17.01.12 Header Hash (44511) Data Hash (251473119) DO NOT REMOVE THIS LINE
# Original File Owner: ANADARKO\gwm835 (User)
#
~VERSION INFORMATION SECTION
VERS. 2.0 : CWLS LOG ASCII STANDARD-VERSION 2.0
WRAP. NO  : ONE LINE PER DEPTH STEP
#
#MNEM UNIT         VALUE/NAME             DESCRIPTION  
#---- ---- --------------------------   ---------------
~WELL INFORMATION SECTION
STRT.F                     190.00000 : TOP DEPTH
STOP.F                   16132.00000 : BOTTOM DEPTH
STEP.F                       0.50000 : DEPTH INCREMENT
NULL.                       -999.250 : NULL VALUE
API .                 42495335780000 : WELL API
CNTY.                        WINKLER : COUNTY
COMP.                 XTO ENERGY INC : OPERATOR
EGL .                           2826 : GROUND LEVEL
EKB .                           2849 : KB ELEVATION
EPD .                            0.0 : ELEV PERM DATUM
FLD .                        WINKLER : FIELD NAME
LAT .                       31.73723 : SURF. LATITUDE
LMF .                             KB : LOGS MEAS FROM
LON .                     -103.26065 : SURF. LONGITUDE
SPUD.                     2014/09/13 : SPUD DATE
STAT.                             TX : STATE
UWI .                 42495335780000 : UWI
WELL.      UNIVERSITY BLOCK 21 1804H : NAME
#
# MNEM   UNIT   API CODES                     DESCRIPTION                 
#------- ---- -------------   --------------------------------------------
#=========                                        ========    == ===========
~CURVE INFORMATION SECTION
DEPT   .F     00 001 00 00 : 1  DEPTH
RAW_RESA34.OHMM               : 2  ARC ATTENUATION RESISTIVITY 34 INCH SPAC (Original mnemonic = A34H)
RAW_CALX.IN                 : 4  CALIPER FROM DENSITY LOG (Original mnemonic = CALD)
RAW_DRHO.G/CC               : 5  DENSITY CORRECTION (Original mnemonic = DCOR)
RAW_GR .GAPI               : 7  GAMMA RAY (Original mnemonic = GR)
RAW_GR .GAPI               : 8  GAMMA RAY FROM DENSITY LOG (Original mnemonic = GRD)
RAW_LLD.OHMM               : 9  LATEROLOG DEEP RESISTIVITY (Original mnemonic = LLD)
RAW_LLS.OHMM               : 10  LATEROLOG SHALLOW RESISTIVITY (Original mnemonic = LLS)
RAW_PEF.B/E                : 15  PHOTOELECTRIC CROSS SECTION (Original mnemonic = PE)
RAW_RHOB.G/CC               : 16  BULK DENSITY (Original mnemonic = RHOB)
#
#MNEM UNIT  VALUE/NAME         DESCRIPTION    
#---- ---- -------------   -------------------
~PARAMETERS INFORMATION SECTION
LNAM.         COMPOSITE : NAME
LTYP.          PURCHASE : LOG TYPE
LVSN.                 1 : LOG VERSION
BHT .DEGF          0723 : BH TEMP
BLI .FT        14211.92 : BOTTOM DEPTH LOGGED
BHIS.                RC : BRIEF HISTORY
CLNT.               TGS : CLIENT
DMF .                DF : DRILL MEAS FROM
FHIS.      RAW-LAS/COPY : FULL HISTORY
EKB .FT            2849 : KB ELEVATION
LMF .                DF : LOGS MEAS FROM
DATE.                10 : RUN DATE
TLI .FT        11222.42 : TOP DEPTH LOGGED
#
#   DEPT     RAW_RESA34 RAW_CALX  RAW_DRHO   RAW_GR    RAW_GR    RAW_LLD    RAW_LLS   RAW_PEF  RAW_RHOB  
#----------- ---------- --------- --------- --------- --------- ---------- --------- --------- --------- 
~ASCII LOG DATA
# ...
11432.00000  -999.250     8.0253     .0711   46.9130   68.4607   103.9333   74.7535    3.6133    2.4650 
11432.50000  -999.250     7.9803     .0804   57.8441   47.1733   143.2752   89.0661    3.7585    2.5060 
11433.00000  -999.250     7.9397     .0880   69.0789   41.2450   113.6035   83.2270    4.0192    2.5477 
11433.50000  -999.250     7.9383     .0838   63.3097   43.7714    94.4494   54.8836    4.2497    2.5709 
11434.00000  -999.250     7.9346     .0758   49.3421   50.2392    91.7209   52.6500    4.4276    2.5640 
11434.50000  -999.250     7.9087     .0719   54.7960   57.3875    82.2995   49.4212    4.4459    2.5381 
11435.00000  -999.250     7.8587     .0761   62.3988   62.9253    75.4009   44.2737    4.2402    2.4985 
11435.50000  -999.250     7.7944     .0846   65.4352   62.8252    67.4348   38.4033    4.0147    2.4641 
11436.00000  -999.250     7.7417     .0907   66.3462   62.5033    70.4937   39.9714    4.0729    2.4769 
11436.50000  -999.250     7.7033     .0915   66.0425   64.1103    84.7996   49.0685    4.2463    2.4989 
11437.00000  -999.250     7.7085     .0914   72.4190   66.1182   100.2341   56.1989    4.3009    2.5036 
11437.50000  -999.250     7.7149     .0950   65.4352   62.9715   121.0351   89.9380    4.2883    2.4984 
11438.00000  -999.250     7.7189     .1023   58.7551   52.7991   113.4786   95.3142    4.2990    2.5014 
11438.50000  -999.250     7.7263     .1116   58.1478   54.0569    78.3599   58.8701    4.3304    2.5095 
11439.00000  -999.250     7.7457     .1259   62.7024   60.1190    65.7098   42.4653    4.3555    2.4851 
11439.50000  -999.250     7.8143     .1499   62.3988   57.1621    69.8321   42.1202    4.2554    2.4442 
11440.00000  -999.250     7.9130     .1690   61.4879   47.0678    82.6398   51.4047    4.0392    2.4201 
11440.50000  -999.250     7.8552     .1666   62.7024   40.1591   115.5665   79.1229    3.9285    2.4321 
11441.00000  -999.250     7.8792     .1474   49.9494   43.1770   109.0153  107.7721    4.0734    2.4341 
11441.50000  -999.250     8.0516     .1196   36.2854   46.0786    74.1640   65.9984    3.9792    2.3952 
11442.00000  -999.250     8.2003     .0904   30.2125   44.5005    49.3239   38.0563    3.7088    2.3505 
11442.50000  -999.250     8.3092     .0612   28.9980   41.8922    32.8036   24.5928    3.4752    2.3227 
11443.00000  -999.250     8.3491     .0517   28.3907   46.0932    27.7613   19.8824    3.3314    2.3237 
11443.50000  -999.250     8.3701     .0498   30.2125   58.9897    30.7446   21.8610    3.2675    2.3344 
11444.00000  -999.250     8.3834     .0509   33.8563   80.5831    34.6335   24.5780    3.2529    2.3593 
11444.50000  -999.250     8.3874     .0533   39.0182   92.5528    34.7145   27.2454    3.2432    2.4044 
11445.00000  -999.250     8.3742     .0595   41.7510   81.6348    32.9608   26.8372    3.3175    2.4635 
11445.50000  -999.250     8.3342     .0583   40.8401   80.5939    29.7810   23.0296    3.5850    2.5140 
11446.00000  -999.250     8.2529     .0522   42.3583   95.8258    27.0405   19.9912    3.8229    2.4927 
11446.50000  -999.250     8.2913     .0449   40.2328  101.6515    26.8222   19.5149    3.7922    2.4403 
11447.00000  -999.250     8.3632     .0407   34.1599   98.7370    27.3550   20.9589    3.6447    2.4022 
11447.50000  -999.250     8.4348     .0374   30.5162   92.8001    27.6250   20.4100    3.5016    2.3839 
11448.00000  -999.250     8.3617     .0413   30.5162   88.4763    27.4111   19.1028    3.4787    2.3956 
11448.50000  -999.250     8.2711     .0458   33.8563   91.8751    27.3186   18.6807    3.4399    2.4169 
11449.00000  -999.250     8.2526     .0511   40.5364   92.2214    27.6193   20.2403    3.4460    2.4249 
11449.50000  -999.250     8.2454     .0611   49.9494   89.5641    27.2497   20.5152    3.4725    2.4232 
11450.00000  -999.250     8.2645     .0667   39.6255   90.5964    25.5382   19.3359    3.5054    2.4265 
11450.50000  -999.250     8.2669     .0714   28.6725   95.1258    21.1827   18.7024    3.5115    2.4421 
11451.00000  -999.250     8.2759     .0739   20.1923   90.6936    21.1091   18.9726    3.4862    2.4672 
11451.50000  -999.250     8.2796     .0725   28.3907   83.2973    21.9546   16.6515    3.4947    2.4899 
11452.00000  -999.250     8.2266     .0673   41.1012   84.9898    23.4923   17.0620    3.5110    2.4865 
11452.50000  -999.250     8.2212     .0638   53.2629   92.1750    26.3981   18.5822    3.4391    2.4561 
11453.00000  -999.250     8.2401     .0620   64.5243   91.8721    26.2423   19.2846    3.2686    2.4321 
11453.50000  -999.250     8.2879     .0662   56.3259   87.3964    21.0260   17.7842    3.1167    2.4376 
11454.00000  -999.250     8.2896     .0739   45.0911   86.5140    15.7573   12.1071    3.0198    2.4409 
11454.50000  -999.250     8.2627     .0824   41.1437   86.9294    16.7019   11.8744    3.0072    2.4316 
11455.00000  -999.250     8.2248     .1024   42.3583   90.7858    19.1460   14.3058    3.1161    2.4289 
11455.50000  -999.250     8.2209     .1251   46.9130   89.3413    21.4328   13.7774    3.2413    2.4506 
11456.00000  -999.250     8.2330     .1509   57.8441   85.9992    21.1079   13.0295    3.4694    2.4739 
11456.50000  -999.250     8.2327     .1698   67.2571   86.2560    21.6885   14.9657    3.8673    2.4507 
11457.00000  -999.250     8.2803     .1863   71.2045   86.2852    21.4717   14.6229    4.2528    2.4153 
11457.50000  -999.250     8.3533     .1727   72.4190   85.5696    19.9729   13.2959    4.1530    2.4103 
11458.00000  -999.250     8.4422     .1237   73.3300   82.5614    19.0078   12.0801    3.9423    2.4345 
11458.50000  -999.250     8.5644     .0868   70.9008   70.8642    22.7894   13.6393    3.8647    2.5002 
11459.00000  -999.250     8.4749     .0853   66.9534   52.0175    35.7763   24.0446    3.9999    2.5642 
11459.50000  -999.250     8.4029     .0801   67.8644   43.8336    54.7966   38.0436    4.1293    2.5576 
11460.00000  -999.250     8.3840     .0615   65.7389   41.6663    38.3993   34.4140    4.0188    2.4922 
11460.50000  -999.250     8.4467     .0420   60.8806   44.5554    21.6942   17.8229    3.6607    2.4199 
11461.00000  -999.250     8.5143     .0274   55.0385   59.2739    15.2994   11.3896    3.3912    2.3938 
11461.50000  -999.250     8.5652     .0151   53.5192   76.6689    14.5825   10.5298    3.3238    2.3880 
11462.00000  -999.250     8.5731     .0104   52.0749   84.9409    15.5099   11.2093    3.2834    2.3840 
11462.50000  -999.250     8.5839     .0079   62.1711   87.7987    15.9906   11.6791    3.2932    2.3782 
11463.00000  -999.250     8.5777     .0087   65.6842   92.4187    16.2139   11.8865    3.3058    2.3868 
11463.50000  -999.250     8.6189     .0131   66.6498   95.9584    16.4280   12.0634    3.2022    2.4170 
11464.00000  -999.250     8.6760     .0188   68.1680   95.0003    16.7402   12.6007    3.0307    2.4485 
11464.50000  -999.250     8.7171     .0239   65.1316   92.8190    16.7426   13.0349    2.9005    2.4627 
11465.00000  -999.250     8.7188     .0274   63.3097   93.0689    15.7874   11.7553    2.9076    2.4678 
11465.50000  -999.250     8.7093     .0288   59.6660   96.1935    15.7859   10.6175    2.9877    2.4604 
11466.00000  -999.250     8.7119     .0333   57.8441   98.1589    18.1090   12.4944    3.0668    2.4493 
11466.50000  -999.250     8.5575     .0368   58.7551   96.2670    15.9235    9.8495    3.1133    2.4600 
11467.00000  -999.250     8.4763     .0358   61.1842   94.3027    16.8999    9.5896    3.1306    2.4776 
11467.50000  -999.250     8.4274     .0335   56.9332   96.5027    24.1597   14.2677    3.2670    2.4840 
11468.00000  -999.250     8.4137     .0347   45.4312   98.6246    29.6127   17.9077    3.3710    2.4919 
11468.50000  -999.250     8.4107     .0377   33.2611   99.4115    32.2565   20.0452    3.4008    2.5107 
11469.00000  -999.250     8.4032     .0429   28.9615  100.3556    34.0845   21.2519    3.3577    2.5222 
11469.50000  -999.250     8.4004     .0467   29.3016  100.9510    38.6227   23.0638    3.3653    2.5172 
11470.00000  -999.250     8.4072     .0530   29.9089  100.4955    47.8108   27.3242    3.5469    2.5161 
