# LAS WORX (tm) v17.01.12 Header Hash (44511) Data Hash (251473119) DO NOT REMOVE THIS LINE
# Original File Owner: ANADARKO\gwm835 (User)
#
~VERSION INFORMATION SECTION
VERS. 2.0 : CWLS LOG ASCII STANDARD-VERSION 2.0
WRAP. NO  : ONE LINE PER DEPTH STEP
#
#MNEM UNIT         VALUE/NAME             DESCRIPTION  
#---- ---- --------------------------   ---------------
~WELL INFORMATION SECTION
STRT.F                     190.00000 : TOP DEPTH
STOP.F                   16132.00000 : BOTTOM DEPTH
STEP.F                       0.50000 : DEPTH INCREMENT
NULL.                       -999.250 : NULL VALUE
API .                 42495335780000 : WELL API
CNTY.                        WINKLER : COUNTY
COMP.                 XTO ENERGY INC : OPERATOR
EGL .                           2826 : GROUND LEVEL
EKB .                           2849 : KB ELEVATION
EPD .                            0.0 : ELEV PERM DATUM
FLD .                        WINKLER : FIELD NAME
LAT .                       31.73723 : SURF. LATITUDE
LMF .                             KB : LOGS MEAS FROM
LON .                     -103.26065 : SURF. LONGITUDE
SPUD.                     2014/09/13 : SPUD DATE
STAT.                             TX : STATE
UWI .                 42495335780000 : UWI
WELL.      UNIVERSITY BLOCK 21 1804H : NAME
#
# MNEM   UNIT   API CODES                     DESCRIPTION                 
#------- ---- -------------   --------------------------------------------
#=========                                        ========    == ===========
~CURVE INFORMATION SECTION
DEPT   .F     00 001 00 00 : 1  DEPTH
RAW_RESA34.OHMM               : 2  ARC ATTENUATION RESISTIVITY 34 INCH SPAC (Original mnemonic = A34H)
RAW_CALX.IN                 : 4  CALIPER FROM DENSITY LOG (Original mnemonic = CALD)
RAW_DRHO.G/CC               : 5  DENSITY CORRECTION (Original mnemonic = DCOR)
RAW_GR .GAPI               : 7  GAMMA RAY (Original mnemonic = GR)
RAW_GR .GAPI               : 8  GAMMA RAY FROM DENSITY LOG (Original mnemonic = GRD)
RAW_LLD.OHMM               : 9  LATEROLOG DEEP RESISTIVITY (Original mnemonic = LLD)
RAW_LLS.OHMM               : 10  LATEROLOG SHALLOW RESISTIVITY (Original mnemonic = LLS)
RAW_PEF.B/E                : 15  PHOTOELECTRIC CROSS SECTION (Original mnemonic = PE)
RAW_RHOB.G/CC               : 16  BULK DENSITY (Original mnemonic = RHOB)
#
#MNEM UNIT  VALUE/NAME         DESCRIPTION    
#---- ---- -------------   -------------------
~PARAMETERS INFORMATION SECTION
LNAM.         COMPOSITE : NAME
LTYP.          PURCHASE : LOG TYPE
LVSN.                 1 : LOG VERSION
BHT .DEGF          0723 : BH TEMP
BLI .FT        14211.92 : BOTTOM DEPTH LOGGED
BHIS.                RC : BRIEF HISTORY
CLNT.               TGS : CLIENT
DMF .                DF : DRILL MEAS FROM
FHIS.      RAW-LAS/COPY : FULL HISTORY
EKB .FT            2849 : KB ELEVATION
LMF .                DF : LOGS MEAS FROM
DATE.                10 : RUN DATE
TLI .FT        11222.42 : TOP DEPTH LOGGED
#
#   DEPT     RAW_RESA34 RAW_CALX  RAW_DRHO   RAW_GR    RAW_GR    RAW_LLD    RAW_LLS   RAW_PEF  RAW_RHOB  
#----------- ---------- --------- --------- --------- --------- ---------- --------- --------- --------- 
~ASCII LOG DATA
# ...
 8929.50000  -999.250     9.0971     .0042 -999.250   103.9066    55.8389   43.0556    3.4719    2.5320 
 8930.00000  -999.250     9.1678     .0189 -999.250   120.8058    47.7917   35.3888    3.0986    2.5291 
 8930.50000  -999.250     9.2560     .0149 -999.250   127.3434    48.6558   35.6445    3.0154    2.5178 
 8931.00000  -999.250     9.3261     .0162 -999.250   125.3720    49.4182   38.3026    3.2250    2.5082 
 8931.50000  -999.250     9.3488     .0199 -999.250   128.4005    50.3601   35.4917    3.4726    2.5123 
 8932.00000  -999.250     9.3497     .0184 -999.250   141.2219    54.8623   41.1356    3.5124    2.5133 
 8932.50000  -999.250     9.3326     .0147 -999.250   138.6594    50.9350   39.9501    3.5262    2.5146 
 8933.00000  -999.250     9.2954     .0066 -999.250   117.5535    41.7933   32.0048    3.5385    2.5314 
 8933.50000  -999.250     9.2602    -.0032 -999.250   104.5920    37.1639   27.8553    3.4668    2.5348 
 8934.00000  -999.250     9.2662    -.0137 -999.250   106.9953    34.8760   25.3446    3.2860    2.5114 
 8934.50000  -999.250     9.2621    -.0246 -999.250   111.9406    35.8478   26.6769    3.1533    2.4824 
 8935.00000  -999.250     9.2536    -.0343 -999.250   114.1244    41.5746   32.0624    3.1531    2.4673 
 8935.50000  -999.250     9.2546    -.0334 -999.250   111.0470    46.9894   38.9228    3.1592    2.4547 
 8936.00000  -999.250     9.2664    -.0270 -999.250   115.3881    46.5673   38.2726    3.1317    2.4242 
 8936.50000  -999.250     9.2664    -.0202 -999.250   125.5500    45.7716   35.4742    3.1024    2.4067 
 8937.00000  -999.250     9.2733    -.0112 -999.250   122.1476    44.6834   35.0300    3.0548    2.4179 
 8937.50000  -999.250     9.3044    -.0071 -999.250   113.7303    43.0578   32.1176    3.0603    2.4353 
 8938.00000  -999.250     9.3173    -.0055 -999.250   111.2568    42.7064   33.1399    3.0633    2.4348 
 8938.50000  -999.250     9.3235    -.0064 -999.250   108.1278    43.3826   30.7599    3.0575    2.4278 
 8939.00000  -999.250     9.3078    -.0110 -999.250   108.1157    46.8488   32.6151    2.9042    2.4163 
 8939.50000  -999.250     9.2864    -.0127 -999.250   112.0084    50.6364   33.3515    2.6285    2.4111 
 8940.00000  -999.250     9.2613    -.0115 -999.250   110.0261    57.5644   39.9187    2.5310    2.4052 
 8940.50000  -999.250     9.2361    -.0097 -999.250   104.6362    70.4076   45.7563    2.5144    2.3932 
 8941.00000  -999.250     9.2165    -.0035 -999.250    98.4323    89.2171   55.9181    2.5969    2.3980 
 8941.50000  -999.250     9.2160     .0036 -999.250    87.4503   108.5169   76.7736    2.7409    2.4300 
 8942.00000  -999.250     9.1780    -.0035 -999.250    67.8333   108.7565   82.6850    3.1873    2.4642 
 8942.50000  -999.250     9.1809    -.0193 -999.250    56.4292    95.6577   71.1261    3.5320    2.4832 
 8943.00000  -999.250     9.1680    -.0285 -999.250    70.2261    73.8005   52.5249    3.3792    2.4415 
 8943.50000  -999.250     9.1662    -.0188 -999.250    86.7868    65.6049   44.8866    2.9029    2.3965 
 8944.00000  -999.250     9.1662    -.0154 -999.250    89.3750    67.0575   46.9193    2.6926    2.3771 
 8944.50000  -999.250     9.1662    -.0153 -999.250    90.6158    72.5760   51.1700    2.6251    2.3707 
 8945.00000  -999.250     9.1662    -.0006 -999.250    90.8358    80.4116   58.2016    2.6740    2.3760 
 8945.50000  -999.250     9.1733     .0102 -999.250    95.3101    80.8135   59.9560    2.7868    2.3949 
 8946.00000  -999.250     9.1851     .0149 -999.250   104.8406    78.0330   57.8888    3.0322    2.4416 
 8946.50000  -999.250     9.1968     .0163 -999.250   111.1632    74.5175   56.0751    3.5974    2.4905 
 8947.00000  -999.250     9.2010     .0133 -999.250   118.4595    73.3633   53.1763    3.9877    2.5174 
 8947.50000  -999.250     9.1745     .0062 -999.250   135.4000    76.1627   55.6895    3.6843    2.4656 
 8948.00000  -999.250     9.1513    -.0015 -999.250   151.4542    76.6446   57.5006    3.0631    2.4016 
 8948.50000  -999.250     9.1307    -.0077 -999.250   145.2908    72.5007   52.8760    2.7216    2.3757 
 8949.00000  -999.250     9.1320    -.0120 -999.250   130.4129    72.8095   48.5414    2.6915    2.3735 
 8949.50000  -999.250     9.1612    -.0179 -999.250   121.3796    89.6815   58.6334    2.8560    2.4070 
 8950.00000  -999.250     9.1616    -.0166 -999.250   111.8108    79.3128   56.9244    3.4416    2.4526 
 8950.50000  -999.250     9.1462    -.0133 -999.250    86.7563    87.2628   57.8989    4.0666    2.5406 
 8951.00000  -999.250     9.1462    -.0089 -999.250    62.9351    82.4718   61.8639    4.4139    2.5957 
 8951.50000  -999.250     9.1462    -.0105 -999.250    74.0670    61.1279   44.4514    4.0859    2.5722 
 8952.00000  -999.250     9.1483    -.0093 -999.250   102.1473    55.9380   40.1318    3.6949    2.5431 
 8952.50000  -999.250     9.1528    -.0071 -999.250   119.1789    61.4219   44.8236    3.4044    2.5091 
 8953.00000  -999.250     9.1594    -.0040 -999.250   111.6512    55.4708   39.2485    3.2210    2.4698 
 8953.50000  -999.250     9.1722    -.0009 -999.250   100.9962    57.9267   43.1763    3.1108    2.4541 
 8954.00000  -999.250     9.1826     .0023 -999.250    90.6421    57.9783   43.1390    3.0127    2.4706 
 8954.50000  -999.250     9.1848     .0054 -999.250    90.6459    52.4097   37.8028    3.0192    2.5023 
 8955.00000  -999.250     9.1850     .0061 -999.250    95.6066    54.0055   36.2322    3.2331    2.5234 
 8955.50000  -999.250     9.1675     .0062 -999.250    97.5235    54.6916   38.7015    3.3688    2.5145 
 8956.00000  -999.250     9.1838     .0063 -999.250   103.7424    57.9313   41.8924    3.2020    2.4778 
 8956.50000  -999.250     9.1925     .0049 -999.250   113.0406    57.1791   44.0304    3.0102    2.4548 
 8957.00000  -999.250     9.1833     .0035 -999.250   120.7365    52.8524   36.6158    2.8743    2.4509 
 8957.50000  -999.250     9.1869     .0020 -999.250   129.9274    53.2296   37.1210    2.8169    2.4536 
 8958.00000  -999.250     9.1959     .0099 -999.250   140.7912    53.7254   38.5816    2.8945    2.4635 
 8958.50000  -999.250     9.2164     .0162 -999.250   140.8387    52.5788   38.3829    3.1005    2.4986 
 8959.00000  -999.250     9.2312     .0124 -999.250   117.7269    54.7939   39.6272    3.5513    2.5391 
 8959.50000  -999.250     9.2281     .0054 -999.250   107.6492    57.2236   39.8692    3.7056    2.5421 
 8960.00000  -999.250     9.2284     .0020 -999.250   104.4175    59.7089   39.8643    3.3503    2.4952 
 8960.50000  -999.250     9.2311     .0021 -999.250    98.0536    59.2929   43.8107    2.9430    2.4501 
 8961.00000  -999.250     9.2510     .0021 -999.250    97.1607    56.0251   41.3478    2.8694    2.4322 
 8961.50000  -999.250     9.2690    -.0056 -999.250   100.4652    51.6528   36.2180    2.8981    2.4133 
 8962.00000  -999.250     9.2911    -.0219 -999.250   103.1590    47.9215   32.7780    2.9614    2.4247 
 8962.50000  -999.250     9.3064    -.0298 -999.250   105.7071    50.5617   33.6958    3.0252    2.4521 
 8963.00000  -999.250     9.3064    -.0269 -999.250   102.9839    60.0163   42.2787    3.0338    2.4608 
 8963.50000  -999.250     9.3033    -.0215 -999.250    96.6206    71.6947   52.5024    2.9673    2.4352 
 8964.00000  -999.250     9.2981    -.0183 -999.250    97.3331    85.1911   60.0074    2.8858    2.4163 
 8964.50000  -999.250     9.2961    -.0165 -999.250   107.6839    92.0025   66.7623    2.7915    2.4110 
 8965.00000  -999.250     9.2966    -.0164 -999.250   124.5500    80.0188   64.3754    2.7749    2.3979 
 8965.50000  -999.250     9.2966    -.0168 -999.250   141.6926    69.3185   51.0643    2.9101    2.4062 
 8966.00000  -999.250     9.2931    -.0142 -999.250   148.2364    59.5287   45.2706    3.0210    2.4200 
 8966.50000  -999.250     9.2876    -.0114 -999.250   146.1106    43.8767   33.0672    2.9724    2.4131 
 8967.00000  -999.250     9.2888    -.0082 -999.250   147.0209    41.9646   30.5949    2.8409    2.3966 
 8967.50000  -999.250     9.2886    -.0079 -999.250   140.9062    43.4424   31.6299    2.8919    2.4140 
