# LAS WORX (tm) v17.01.12 Header Hash (44511) Data Hash (251473119) DO NOT REMOVE THIS LINE
# Original File Owner: ANADARKO\gwm835 (User)
#
~VERSION INFORMATION SECTION
VERS. 2.0 : CWLS LOG ASCII STANDARD-VERSION 2.0
WRAP. NO  : ONE LINE PER DEPTH STEP
#
#MNEM UNIT         VALUE/NAME             DESCRIPTION  
#---- ---- --------------------------   ---------------
~WELL INFORMATION SECTION
STRT.F                     190.00000 : TOP DEPTH
STOP.F                   16132.00000 : BOTTOM DEPTH
STEP.F                       0.50000 : DEPTH INCREMENT
NULL.                       -999.250 : NULL VALUE
API .                 42495335780000 : WELL API
CNTY.                        WINKLER : COUNTY
COMP.                 XTO ENERGY INC : OPERATOR
EGL .                           2826 : GROUND LEVEL
EKB .                           2849 : KB ELEVATION
EPD .                            0.0 : ELEV PERM DATUM
FLD .                        WINKLER : FIELD NAME
LAT .                       31.73723 : SURF. LATITUDE
LMF .                             KB : LOGS MEAS FROM
LON .                     -103.26065 : SURF. LONGITUDE
SPUD.                     2014/09/13 : SPUD DATE
STAT.                             TX : STATE
UWI .                 42495335780000 : UWI
WELL.      UNIVERSITY BLOCK 21 1804H : NAME
#
# MNEM   UNIT   API CODES                     DESCRIPTION                 
#------- ---- -------------   --------------------------------------------
#=========                                        ========    == ===========
~CURVE INFORMATION SECTION
DEPT   .F     00 001 00 00 : 1  DEPTH
RAW_RESA34.OHMM               : 2  ARC ATTENUATION RESISTIVITY 34 INCH SPAC (Original mnemonic = A34H)
RAW_CALX.IN                 : 4  CALIPER FROM DENSITY LOG (Original mnemonic = CALD)
RAW_DRHO.G/CC               : 5  DENSITY CORRECTION (Original mnemonic = DCOR)
RAW_GR .GAPI               : 7  GAMMA RAY (Original mnemonic = GR)
RAW_GR .GAPI               : 8  GAMMA RAY FROM DENSITY LOG (Original mnemonic = GRD)
RAW_LLD.OHMM               : 9  LATEROLOG DEEP RESISTIVITY (Original mnemonic = LLD)
RAW_LLS.OHMM               : 10  LATEROLOG SHALLOW RESISTIVITY (Original mnemonic = LLS)
RAW_PEF.B/E                : 15  PHOTOELECTRIC CROSS SECTION (Original mnemonic = PE)
RAW_RHOB.G/CC               : 16  BULK DENSITY (Original mnemonic = RHOB)
#
#MNEM UNIT  VALUE/NAME         DESCRIPTION    
#---- ---- -------------   -------------------
~PARAMETERS INFORMATION SECTION
LNAM.         COMPOSITE : NAME
LTYP.          PURCHASE : LOG TYPE
LVSN.                 1 : LOG VERSION
BHT .DEGF          0723 : BH TEMP
BLI .FT        14211.92 : BOTTOM DEPTH LOGGED
BHIS.                RC : BRIEF HISTORY
CLNT.               TGS : CLIENT
DMF .                DF : DRILL MEAS FROM
FHIS.      RAW-LAS/COPY : FULL HISTORY
EKB .FT            2849 : KB ELEVATION
LMF .                DF : LOGS MEAS FROM
DATE.                10 : RUN DATE
TLI .FT        11222.42 : TOP DEPTH LOGGED
#
#   DEPT     RAW_RESA34 RAW_CALX  RAW_DRHO   RAW_GR    RAW_GR    RAW_LLD    RAW_LLS   RAW_PEF  RAW_RHOB  
#----------- ---------- --------- --------- --------- --------- ---------- --------- --------- --------- 
~ASCII LOG DATA
# ...
 6042.00000  -999.250     9.7772     .0183 -999.250    51.2302     1.9588    1.7890    3.7629    2.4328 
 6042.50000  -999.250     9.8162     .0218 -999.250    43.3267     1.7435    1.6207    3.7050    2.4109 
 6043.00000  -999.250     9.8451     .0172 -999.250    41.9411     1.6677    1.5609    3.5090    2.3839 
 6043.50000  -999.250     9.8678     .0055 -999.250    46.2670     1.7389    1.6232    3.3983    2.3647 
 6044.00000  -999.250     9.8874    -.0013 -999.250    47.6395     1.8576    1.7782    3.3152    2.3725 
 6044.50000  -999.250     9.9066    -.0072 -999.250    45.9618     1.9808    1.8797    3.2421    2.3906 
 6045.00000  -999.250     9.9259    -.0085 -999.250    40.7740     2.0769    1.8341    3.2646    2.4056 
 6045.50000  -999.250     9.9300    -.0027 -999.250    37.7755     2.1299    1.9149    3.2746    2.4073 
 6046.00000  -999.250     9.9340     .0010 -999.250    41.9997     2.3008    1.9229    3.2798    2.4029 
 6046.50000  -999.250     9.9379     .0047 -999.250    47.0891     2.8924    2.3668    3.2791    2.4132 
 6047.00000  -999.250     9.9419     .0119 -999.250    48.7288     4.3114    3.1276    3.2845    2.4666 
 6047.50000  -999.250     9.8980     .0164 -999.250    50.8727     6.4267    4.4466    3.2919    2.5190 
 6048.00000  -999.250     9.7940     .0159 -999.250    59.9075    11.4549    8.1730    3.2621    2.5542 
 6048.50000  -999.250     9.7556     .0145 -999.250    77.5533    12.5219    9.9180    3.1209    2.5618 
 6049.00000  -999.250     9.5947     .0079 -999.250    91.0300    12.6377   10.1311    3.0057    2.5567 
 6049.50000  -999.250     9.4508    -.0026 -999.250    90.9598    12.7765   10.3269    2.9336    2.5488 
 6050.00000  -999.250     9.4220    -.0044 -999.250    75.9609    11.9118    9.3562    3.0128    2.5609 
 6050.50000  -999.250     9.3831    -.0025 -999.250    56.6133    11.2847    9.0032    3.1926    2.5960 
 6051.00000  -999.250     9.3232     .0004 -999.250    42.0042    12.0796    9.5930    3.2744    2.6324 
 6051.50000  -999.250     9.2634     .0046 -999.250    34.7242    13.1107    9.8767    3.2007    2.6506 
 6052.00000  -999.250     9.2035     .0088 -999.250    37.2383    15.0527   10.8700    3.1078    2.6641 
 6052.50000  -999.250     9.1364     .0110 -999.250    50.1011    20.2362   14.4428    3.0446    2.6559 
 6053.00000  -999.250     9.0598     .0088 -999.250    70.5933    28.3336   20.7772    3.0799    2.6200 
 6053.50000  -999.250     9.0312     .0051 -999.250    99.9285    42.2871   28.8396    3.1037    2.5931 
 6054.00000  -999.250     9.0204     .0016 -999.250   125.4903    57.5325   38.7283    3.0353    2.5871 
 6054.50000  -999.250     9.0095    -.0019 -999.250   142.0738    75.1373   52.0077    2.9619    2.5825 
 6055.00000  -999.250     8.9918    -.0043 -999.250   158.1367    94.8034   69.8405    2.9592    2.5488 
 6055.50000  -999.250     8.9566    -.0056 -999.250   174.1996   112.6794   93.5854    2.8987    2.5045 
 6056.00000  -999.250     8.9524    -.0068 -999.250   183.7079   109.9957   90.9660    2.8240    2.5028 
 6056.50000  -999.250     8.9719    -.0079 -999.250   163.6014   100.2861   79.5955    2.8596    2.5246 
 6057.00000  -999.250     8.9706    -.0098 -999.250   143.7723    94.2817   70.1969    2.8972    2.5177 
 6057.50000  -999.250     8.9693    -.0112 -999.250   143.5585    97.8989   73.8590    2.9587    2.5116 
 6058.00000  -999.250     8.9680    -.0145 -999.250   136.8427   101.8103   81.6868    3.0944    2.5241 
 6058.50000  -999.250     8.9625    -.0156 -999.250   129.0797   105.8779   84.7113    3.2243    2.5315 
 6059.00000  -999.250     8.9552    -.0115 -999.250   127.2857   109.9808   81.8723    3.2249    2.5334 
 6059.50000  -999.250     8.9570    -.0065 -999.250   119.0183   110.8941   85.8437    3.1644    2.5538 
 6060.00000  -999.250     8.9587    -.0018 -999.250   107.0911   100.3147   77.1257    3.1919    2.5809 
 6060.50000  -999.250     8.9668     .0029 -999.250   102.3742    91.1912   69.3903    3.2620    2.5837 
 6061.00000  -999.250     9.0013     .0000 -999.250   102.0541    78.8050   60.5882    3.2423    2.5677 
 6061.50000  -999.250     9.0359    -.0060 -999.250   102.4756    50.1669   44.6406    3.1679    2.5508 
 6062.00000  -999.250     9.0561    -.0119 -999.250   111.2085    32.7104   25.8129    2.9982    2.5389 
 6062.50000  -999.250     9.0732    -.0180 -999.250   109.3760    26.7465   17.9448    2.8119    2.5335 
 6063.00000  -999.250     9.0914    -.0218 -999.250    96.4981    25.3463   17.3584    2.7245    2.5193 
 6063.50000  -999.250     9.1061    -.0166 -999.250   101.5906    22.9000   16.7014    2.7084    2.5102 
 6064.00000  -999.250     9.1061    -.0062 -999.250   115.1242    20.5332   16.4691    2.7907    2.5278 
 6064.50000  -999.250     9.1061     .0061 -999.250   112.5655    17.2443   13.3089    2.8562    2.5510 
 6065.00000  -999.250     9.1061     .0151 -999.250    89.6320    11.5617    8.6304    2.8426    2.5606 
 6065.50000  -999.250     9.1018     .0191 -999.250    59.0652     9.3920    6.8259    2.9620    2.5535 
 6066.00000  -999.250     9.0947     .0151 -999.250    45.2609     7.5503    5.8609    3.1319    2.5382 
 6066.50000  -999.250     9.0876     .0074 -999.250    43.3185     6.2357    5.0360    3.1321    2.5357 
 6067.00000  -999.250     9.0860    -.0002 -999.250    43.3724     5.6253    4.3093    3.0461    2.5318 
 6067.50000  -999.250     9.1281    -.0096 -999.250    44.1779     5.1095    3.7889    2.9489    2.5038 
 6068.00000  -999.250     9.1587    -.0158 -999.250    46.7733     4.6975    3.5295    2.8142    2.4700 
 6068.50000  -999.250     9.1892    -.0192 -999.250    49.3688     3.9958    3.0715    2.7429    2.4692 
 6069.00000  -999.250     9.2154    -.0175 -999.250    51.3045     3.2573    2.5254    2.8126    2.4728 
 6069.50000  -999.250     9.2383    -.0141 -999.250    51.7103     2.7905    2.0763    2.9143    2.4511 
 6070.00000  -999.250     9.2481    -.0067 -999.250    49.4559     2.6723    2.0788    2.9465    2.4305 
 6070.50000  -999.250     9.2580     .0007 -999.250    46.1610     2.9970    2.3309    2.9499    2.4387 
 6071.00000  -999.250     9.2660     .0052 -999.250    44.6774     3.1407    2.4743    2.9287    2.4576 
 6071.50000  -999.250     9.2696     .0051 -999.250    48.4319     3.2787    2.5635    2.9044    2.4674 
 6072.00000  -999.250     9.2784     .0051 -999.250    49.9932     3.3673    2.6178    2.8773    2.4721 
 6072.50000  -999.250     9.2871     .0051 -999.250    43.8377     3.2790    2.5351    2.8717    2.4758 
 6073.00000  -999.250     9.2959     .0053 -999.250    38.8843     3.1396    2.3917    2.9450    2.4742 
 6073.50000  -999.250     9.3047     .0072 -999.250    39.0164     2.9928    2.2896    3.0182    2.4687 
 6074.00000  -999.250     9.3145     .0083 -999.250    40.4573     2.8205    2.1048    3.0245    2.4644 
 6074.50000  -999.250     9.3249     .0080 -999.250    40.5677     2.6518    1.9633    2.9492    2.4546 
 6075.00000  -999.250     9.3271     .0051 -999.250    40.0741     2.5566    1.8348    2.8359    2.4457 
 6075.50000  -999.250     9.3332     .0022 -999.250    38.6610     2.4961    1.7617    2.8546    2.4354 
 6076.00000  -999.250     9.3479    -.0007 -999.250    40.3196     2.4919    1.7621    2.9555    2.4170 
 6076.50000  -999.250     9.3638    -.0036 -999.250    45.0732     2.5779    1.7966    3.0549    2.4148 
 6077.00000  -999.250     9.3719    -.0067 -999.250    46.1808     2.7434    1.8794    3.0024    2.4192 
 6077.50000  -999.250     9.3790    -.0103 -999.250    44.0777     2.8837    2.0061    2.9180    2.4141 
 6078.00000  -999.250     9.4050    -.0115 -999.250    44.8135     2.8984    2.0298    2.8783    2.4215 
 6078.50000  -999.250     9.4299    -.0130 -999.250    46.5507     2.8998    2.0203    3.0303    2.4332 
 6079.00000  -999.250     9.4470    -.0161 -999.250    47.5732     2.9211    2.0259    3.1672    2.4261 
 6079.50000  -999.250     9.4490    -.0166 -999.250    46.4375     2.9295    2.0316    3.2360    2.4205 
 6080.00000  -999.250     9.4611    -.0188 -999.250    44.1172     2.8422    1.9200    3.2049    2.4281 
