# LAS WORX (tm) v17.01.12 Header Hash (44511) Data Hash (251473119) DO NOT REMOVE THIS LINE
# Original File Owner: ANADARKO\gwm835 (User)
#
~VERSION INFORMATION SECTION
VERS. 2.0 : CWLS LOG ASCII STANDARD-VERSION 2.0
WRAP. NO  : ONE LINE PER DEPTH STEP
#
#MNEM UNIT         VALUE/NAME             DESCRIPTION  
#---- ---- --------------------------   ---------------
~WELL INFORMATION SECTION
STRT.F                     190.00000 : TOP DEPTH
STOP.F                   16132.00000 : BOTTOM DEPTH
STEP.F                       0.50000 : DEPTH INCREMENT
NULL.                       -999.250 : NULL VALUE
API .                 42495335780000 : WELL API
CNTY.                        WINKLER : COUNTY
COMP.                 XTO ENERGY INC : OPERATOR
EGL .                           2826 : GROUND LEVEL
EKB .                           2849 : KB ELEVATION
EPD .                            0.0 : ELEV PERM DATUM
FLD .                        WINKLER : FIELD NAME
LAT .                       31.73723 : SURF. LATITUDE
LMF .                             KB : LOGS MEAS FROM
LON .                     -103.26065 : SURF. LONGITUDE
SPUD.                     2014/09/13 : SPUD DATE
STAT.                             TX : STATE
UWI .                 42495335780000 : UWI
WELL.      UNIVERSITY BLOCK 21 1804H : NAME
#
# MNEM   UNIT   API CODES                     DESCRIPTION                 
#------- ---- -------------   --------------------------------------------
#=========                                        ========    == ===========
~CURVE INFORMATION SECTION
DEPT   .F     00 001 00 00 : 1  DEPTH
RAW_RESA34.OHMM               : 2  ARC ATTENUATION RESISTIVITY 34 INCH SPAC (Original mnemonic = A34H)
RAW_CALX.IN                 : 4  CALIPER FROM DENSITY LOG (Original mnemonic = CALD)
RAW_DRHO.G/CC               : 5  DENSITY CORRECTION (Original mnemonic = DCOR)
RAW_GR .GAPI               : 7  GAMMA RAY (Original mnemonic = GR)
RAW_GR .GAPI               : 8  GAMMA RAY FROM DENSITY LOG (Original mnemonic = GRD)
RAW_LLD.OHMM               : 9  LATEROLOG DEEP RESISTIVITY (Original mnemonic = LLD)
RAW_LLS.OHMM               : 10  LATEROLOG SHALLOW RESISTIVITY (Original mnemonic = LLS)
RAW_PEF.B/E                : 15  PHOTOELECTRIC CROSS SECTION (Original mnemonic = PE)
RAW_RHOB.G/CC               : 16  BULK DENSITY (Original mnemonic = RHOB)
#
#MNEM UNIT  VALUE/NAME         DESCRIPTION    
#---- ---- -------------   -------------------
~PARAMETERS INFORMATION SECTION
LNAM.         COMPOSITE : NAME
LTYP.          PURCHASE : LOG TYPE
LVSN.                 1 : LOG VERSION
BHT .DEGF          0723 : BH TEMP
BLI .FT        14211.92 : BOTTOM DEPTH LOGGED
BHIS.                RC : BRIEF HISTORY
CLNT.               TGS : CLIENT
DMF .                DF : DRILL MEAS FROM
FHIS.      RAW-LAS/COPY : FULL HISTORY
EKB .FT            2849 : KB ELEVATION
LMF .                DF : LOGS MEAS FROM
DATE.                10 : RUN DATE
TLI .FT        11222.42 : TOP DEPTH LOGGED
#
#   DEPT     RAW_RESA34 RAW_CALX  RAW_DRHO   RAW_GR    RAW_GR    RAW_LLD    RAW_LLS   RAW_PEF  RAW_RHOB  
#----------- ---------- --------- --------- --------- --------- ---------- --------- --------- --------- 
~ASCII LOG DATA
# ...
 6850.50000  -999.250     9.4983     .0062 -999.250    81.3574     4.7988    3.4641    2.5912    2.5107 
 6851.00000  -999.250     9.5361     .0030 -999.250    72.1445     3.6800    2.5679    2.5655    2.4735 
 6851.50000  -999.250     9.5470    -.0002 -999.250    64.4384     3.3685    2.3630    2.5930    2.4636 
 6852.00000  -999.250     9.5717    -.0033 -999.250    63.3711     3.1725    2.3547    2.7742    2.4597 
 6852.50000  -999.250     9.5819    -.0045 -999.250    61.9825     3.0005    2.2681    3.0271    2.4709 
 6853.00000  -999.250     9.5931    -.0038 -999.250    56.6876     2.9346    2.2154    3.4070    2.4718 
 6853.50000  -999.250     9.6049    -.0052 -999.250    54.0959     2.8281    2.1947    3.9780    2.4463 
 6854.00000  -999.250     9.6166    -.0044 -999.250    58.4840     2.5878    2.0456    4.3099    2.4337 
 6854.50000  -999.250     9.6284    -.0011 -999.250    56.2620     2.4723    1.9188    4.0882    2.4500 
 6855.00000  -999.250     9.6402     .0021 -999.250    51.0243     2.3789    1.8423    3.9893    2.4421 
 6855.50000  -999.250     9.6520     .0050 -999.250    51.9606     2.3985    1.7788    4.1947    2.4336 
 6856.00000  -999.250     9.6638     .0021 -999.250    54.9107     2.4048    1.8109    4.3424    2.4389 
 6856.50000  -999.250     9.6863    -.0023 -999.250    57.2165     2.1956    1.6102    4.3451    2.4667 
 6857.00000  -999.250     9.7099    -.0069 -999.250    57.2104     1.9788    1.4828    4.2674    2.4760 
 6857.50000  -999.250     9.7334    -.0103 -999.250    54.3805     1.8506    1.3544    4.2637    2.4354 
 6858.00000  -999.250     9.7569    -.0135 -999.250    53.9331     1.8367    1.3956    4.4978    2.4065 
 6858.50000  -999.250     9.7804    -.0174 -999.250    57.4466     1.8610    1.4138    4.9098    2.3941 
 6859.00000  -999.250     9.8039    -.0200 -999.250    60.2279     1.8816    1.4439    5.3033    2.3941 
 6859.50000  -999.250     9.8274    -.0183 -999.250    57.9134     1.8921    1.4335    5.1149    2.3959 
 6860.00000  -999.250     9.8510    -.0136 -999.250    56.3764     1.8322    1.4115    4.8557    2.4009 
 6860.50000  -999.250     9.8775    -.0080 -999.250    56.9588     1.7790    1.3913    4.6387    2.4099 
 6861.00000  -999.250     9.9089    -.0013 -999.250    58.4994     1.7914    1.4061    4.5493    2.4072 
 6861.50000  -999.250     9.9403     .0058 -999.250    59.5756     1.7958    1.5103    4.5158    2.4076 
 6862.00000  -999.250     9.9717     .0129 -999.250    62.0998     2.2088    1.6270    4.4369    2.4180 
 6862.50000  -999.250     9.9604     .0200 -999.250    62.8135     2.2598    1.6881    4.2506    2.4311 
 6863.00000  -999.250     9.8934     .0190 -999.250    59.7197     2.3743    1.7090    4.0909    2.4508 
 6863.50000  -999.250     9.7979     .0142 -999.250    61.8327     2.3843    1.7356    3.9046    2.4647 
 6864.00000  -999.250     9.7693     .0076 -999.250    69.3047     2.2446    1.6267    3.9983    2.4324 
 6864.50000  -999.250     9.7737     .0013 -999.250    73.4047     2.3163    1.6526    4.1531    2.4138 
 6865.00000  -999.250     9.7846    -.0033 -999.250    65.4789     2.4217    1.7765    4.2384    2.4118 
 6865.50000  -999.250     9.8011    -.0040 -999.250    60.6260     2.5059    1.8531    4.2795    2.4157 
 6866.00000  -999.250     9.7863    -.0043 -999.250    65.8782     2.6606    1.9680    4.1709    2.4251 
 6866.50000  -999.250     9.7587    -.0045 -999.250    70.3416     2.5917    1.9728    3.9310    2.4381 
 6867.00000  -999.250     9.7237    -.0042 -999.250    70.4126     2.4963    1.9118    3.8201    2.4470 
 6867.50000  -999.250     9.6880    -.0040 -999.250    65.9320     2.4037    1.9351    3.6923    2.4420 
 6868.00000  -999.250     9.6511    -.0045 -999.250    63.0659     2.2981    1.8222    3.5010    2.4295 
 6868.50000  -999.250     9.6193    -.0058 -999.250    59.8684     2.2620    1.8164    3.2926    2.4222 
 6869.00000  -999.250     9.5970    -.0057 -999.250    57.4200     2.3353    1.8565    3.1202    2.4223 
 6869.50000  -999.250     9.5792    -.0041 -999.250    61.1270     2.2974    1.8587    3.1324    2.4263 
 6870.00000  -999.250     9.5557    -.0032 -999.250    65.7605     2.3370    1.8713    3.1939    2.4293 
 6870.50000  -999.250     9.5245    -.0024 -999.250    65.2989     2.4926    2.0046    3.2107    2.4273 
 6871.00000  -999.250     9.4968    -.0016 -999.250    61.2286     2.6774    2.1205    3.1477    2.4168 
 6871.50000  -999.250     9.4715    -.0002 -999.250    59.4466     3.0330    2.3415    3.0759    2.4241 
 6872.00000  -999.250     9.4598     .0021 -999.250    62.1809     3.5685    2.7120    2.9932    2.4490 
 6872.50000  -999.250     9.4386     .0042 -999.250    64.7460     4.0454    3.1208    2.8871    2.4745 
 6873.00000  -999.250     9.4229     .0058 -999.250    63.9861     4.4778    3.4020    2.7681    2.4989 
 6873.50000  -999.250     9.4048     .0068 -999.250    60.6276     5.0784    3.8107    2.6608    2.5098 
 6874.00000  -999.250     9.3947     .0039 -999.250    62.5695     6.1452    4.5480    2.6259    2.5045 
 6874.50000  -999.250     9.3815     .0059 -999.250    63.9063     7.4747    5.4279    2.6631    2.5082 
 6875.00000  -999.250     9.3559     .0111 -999.250    63.6839     9.2100    6.8282    2.7925    2.5421 
 6875.50000  -999.250     9.3208     .0165 -999.250    69.9510    10.5997    7.8771    2.9585    2.5615 
 6876.00000  -999.250     9.3251     .0252 -999.250    71.0565    11.4290    8.5072    2.9564    2.5770 
 6876.50000  -999.250     9.3209     .0312 -999.250    69.1813    13.2296    9.8071    2.9055    2.5899 
 6877.00000  -999.250     9.2804     .0287 -999.250    70.6131    15.3932   12.1305    2.9269    2.5986 
 6877.50000  -999.250     9.2409     .0189 -999.250    75.1183    15.6955   12.5075    2.9600    2.6036 
 6878.00000  -999.250     9.2178     .0092 -999.250    81.2315    15.7603   11.7373    2.9167    2.6005 
 6878.50000  -999.250     9.2032    -.0001 -999.250    84.8023    17.8438   13.6748    2.8341    2.5847 
 6879.00000  -999.250     9.1821    -.0031 -999.250    77.0520    18.3997   15.5887    2.8129    2.5638 
 6879.50000  -999.250     9.1884    -.0035 -999.250    67.5855    20.3213   17.5828    2.9534    2.5661 
 6880.00000  -999.250     9.1681    -.0017 -999.250    64.4473    23.8043   20.0115    3.0980    2.5874 
 6880.50000  -999.250     9.1485     .0001 -999.250    71.4024    24.2093   20.3540    3.1065    2.5791 
 6881.00000  -999.250     9.1638     .0005 -999.250    79.5179    22.8110   21.5890    2.9374    2.5531 
 6881.50000  -999.250     9.1743     .0004 -999.250    71.3124    20.7718   19.8333    2.8517    2.5597 
 6882.00000  -999.250     9.1827    -.0035 -999.250    61.4988    18.9804   18.2582    2.9297    2.5803 
 6882.50000  -999.250     9.1962    -.0074 -999.250    62.9592    16.4780   16.2052    3.0298    2.5942 
 6883.00000  -999.250     9.2064    -.0038 -999.250    68.1634    13.6536   13.2635    2.8745    2.5947 
 6883.50000  -999.250     9.2174     .0042 -999.250    70.9718    13.6208   13.2196    2.7687    2.5956 
 6884.00000  -999.250     9.2266     .0099 -999.250    74.3817    14.6280   13.3583    2.7512    2.5928 
 6884.50000  -999.250     9.2262     .0129 -999.250    76.9047    15.9502   14.9289    2.7290    2.5950 
 6885.00000  -999.250     9.2273     .0111 -999.250    85.3154    20.7987   17.2811    2.7043    2.6009 
 6885.50000  -999.250     9.2343     .0083 -999.250   104.0055    27.5433   23.2702    2.7072    2.5926 
 6886.00000  -999.250     9.2407     .0044 -999.250   120.2481    33.8030   31.2323    2.7876    2.5681 
 6886.50000  -999.250     9.2464     .0033 -999.250   128.0144    33.8527   32.7216    2.9245    2.5663 
 6887.00000  -999.250     9.2476     .0066 -999.250   121.7246    29.8924   27.1702    3.0462    2.5734 
 6887.50000  -999.250     9.2466     .0057 -999.250   107.2308    28.3472   24.5585    3.1661    2.5877 
 6888.00000  -999.250     9.2555     .0046 -999.250    97.2494    25.7827   24.6322    3.2456    2.6061 
 6888.50000  -999.250     9.2636     .0035 -999.250    92.6806    23.4297   21.8600    3.1881    2.6226 
