# LAS WORX (tm) v17.01.12 Header Hash (44511) Data Hash (251473119) DO NOT REMOVE THIS LINE
# Original File Owner: ANADARKO\gwm835 (User)
#
~VERSION INFORMATION SECTION
VERS. 2.0 : CWLS LOG ASCII STANDARD-VERSION 2.0
WRAP. NO  : ONE LINE PER DEPTH STEP
#
#MNEM UNIT         VALUE/NAME             DESCRIPTION  
#---- ---- --------------------------   ---------------
~WELL INFORMATION SECTION
STRT.F                     190.00000 : TOP DEPTH
STOP.F                   16132.00000 : BOTTOM DEPTH
STEP.F                       0.50000 : DEPTH INCREMENT
NULL.                       -999.250 : NULL VALUE
API .                 42495335780000 : WELL API
CNTY.                        WINKLER : COUNTY
COMP.                 XTO ENERGY INC : OPERATOR
EGL .                           2826 : GROUND LEVEL
EKB .                           2849 : KB ELEVATION
EPD .                            0.0 : ELEV PERM DATUM
FLD .                        WINKLER : FIELD NAME
LAT .                       31.73723 : SURF. LATITUDE
LMF .                             KB : LOGS MEAS FROM
LON .                     -103.26065 : SURF. LONGITUDE
SPUD.                     2014/09/13 : SPUD DATE
STAT.                             TX : STATE
UWI .                 42495335780000 : UWI
WELL.      UNIVERSITY BLOCK 21 1804H : NAME
#
# MNEM   UNIT   API CODES                     DESCRIPTION                 
#------- ---- -------------   --------------------------------------------
#=========                                        ========    == ===========
~CURVE INFORMATION SECTION
DEPT   .F     00 001 00 00 : 1  DEPTH
RAW_RESA34.OHMM               : 2  ARC ATTENUATION RESISTIVITY 34 INCH SPAC (Original mnemonic = A34H)
RAW_CALX.IN                 : 4  CALIPER FROM DENSITY LOG (Original mnemonic = CALD)
RAW_DRHO.G/CC               : 5  DENSITY CORRECTION (Original mnemonic = DCOR)
RAW_GR .GAPI               : 7  GAMMA RAY (Original mnemonic = GR)
RAW_GR .GAPI               : 8  GAMMA RAY FROM DENSITY LOG (Original mnemonic = GRD)
RAW_LLD.OHMM               : 9  LATEROLOG DEEP RESISTIVITY (Original mnemonic = LLD)
RAW_LLS.OHMM               : 10  LATEROLOG SHALLOW RESISTIVITY (Original mnemonic = LLS)
RAW_PEF.B/E                : 15  PHOTOELECTRIC CROSS SECTION (Original mnemonic = PE)
RAW_RHOB.G/CC               : 16  BULK DENSITY (Original mnemonic = RHOB)
#
#MNEM UNIT  VALUE/NAME         DESCRIPTION    
#---- ---- -------------   -------------------
~PARAMETERS INFORMATION SECTION
LNAM.         COMPOSITE : NAME
LTYP.          PURCHASE : LOG TYPE
LVSN.                 1 : LOG VERSION
BHT .DEGF          0723 : BH TEMP
BLI .FT        14211.92 : BOTTOM DEPTH LOGGED
BHIS.                RC : BRIEF HISTORY
CLNT.               TGS : CLIENT
DMF .                DF : DRILL MEAS FROM
FHIS.      RAW-LAS/COPY : FULL HISTORY
EKB .FT            2849 : KB ELEVATION
LMF .                DF : LOGS MEAS FROM
DATE.                10 : RUN DATE
TLI .FT        11222.42 : TOP DEPTH LOGGED
#
#   DEPT     RAW_RESA34 RAW_CALX  RAW_DRHO   RAW_GR    RAW_GR    RAW_LLD    RAW_LLS   RAW_PEF  RAW_RHOB  
#----------- ---------- --------- --------- --------- --------- ---------- --------- --------- --------- 
~ASCII LOG DATA
# ...
 6427.00000  -999.250    10.7261     .0058 -999.250    50.4593     2.3378    2.0795    4.1009    2.3973 
 6427.50000  -999.250    10.7528    -.0067 -999.250    47.2553     2.4561    2.2233    4.5161    2.3901 
 6428.00000  -999.250    10.8011    -.0127 -999.250    45.3901     2.6068    2.4276    4.9314    2.4147 
 6428.50000  -999.250    10.8257    -.0205 -999.250    43.8626     2.6541    2.4165    5.0959    2.4412 
 6429.00000  -999.250    10.8573    -.0284 -999.250    43.5853     2.5439    2.2545    4.2351    2.4275 
 6429.50000  -999.250    10.8598    -.0256 -999.250    45.4932     2.4935    2.1280    4.1000    2.4063 
 6430.00000  -999.250    10.8324    -.0080 -999.250    47.7741     2.5067    2.1014    4.2951    2.3982 
 6430.50000  -999.250    10.8126     .0076 -999.250    47.8602     2.5626    2.1776    4.4861    2.4008 
 6431.00000  -999.250    10.8350     .0116 -999.250    47.3943     2.6469    2.1749    4.2223    2.4050 
 6431.50000  -999.250    10.8573     .0144 -999.250    48.5697     2.7631    2.3397    3.7035    2.4158 
 6432.00000  -999.250    10.8846     .0155 -999.250    47.7681     2.6327    2.2565    3.5199    2.4140 
 6432.50000  -999.250    10.9187     .0143 -999.250    46.4057     2.5178    2.1714    3.2509    2.4101 
 6433.00000  -999.250    10.9360     .0057 -999.250    46.2264     2.4829    2.1342    2.9225    2.4013 
 6433.50000  -999.250    10.9351     .0005 -999.250    44.5950     2.4859    2.1124    2.9151    2.3832 
 6434.00000  -999.250    10.9118    -.0047 -999.250    43.6085     2.4927    2.1481    3.1395    2.3731 
 6434.50000  -999.250    10.8927    -.0089 -999.250    48.9080     2.5614    2.2200    3.1273    2.3781 
 6435.00000  -999.250    10.8969    -.0081 -999.250    53.5378     2.6774    2.3211    2.8230    2.3866 
 6435.50000  -999.250    10.8991    -.0049 -999.250    53.6913     2.8571    2.4286    2.6534    2.3963 
 6436.00000  -999.250    10.8433     .0019 -999.250    51.1652     3.1228    2.5355    2.6726    2.4141 
 6436.50000  -999.250    10.7764     .0087 -999.250    44.9916     3.6046    2.7328    2.7194    2.4483 
 6437.00000  -999.250    10.6758     .0190 -999.250    44.5381     4.8563    3.5111    2.7647    2.4536 
 6437.50000  -999.250    10.4759     .0348 -999.250    51.8178     6.8233    5.7245    2.9022    2.4617 
 6438.00000  -999.250    10.0385     .0458 -999.250    54.6760    11.3424    9.3467    3.0720    2.5426 
 6438.50000  -999.250     9.6150     .0509 -999.250    52.7610    18.9034   13.7726    3.2046    2.6454 
 6439.00000  -999.250     9.5073     .0507 -999.250    51.3200    21.0748   15.1720    3.2795    2.7061 
 6439.50000  -999.250     9.5121     .0442 -999.250    52.4599    20.6537   13.8535    3.1570    2.7046 
 6440.00000  -999.250     9.5182     .0239 -999.250    56.3556    20.4200   13.1898    2.9227    2.6624 
 6440.50000  -999.250     9.5242     .0135 -999.250    61.6537    21.8207   13.7048    2.7385    2.6399 
 6441.00000  -999.250     9.5153     .0088 -999.250    57.8573    26.0833   16.4966    2.7155    2.6763 
 6441.50000  -999.250     9.5065     .0061 -999.250    48.3163    29.0076   17.5386    2.9010    2.7337 
 6442.00000  -999.250     9.5094     .0005 -999.250    43.1363    28.0003   17.8360    3.1213    2.7484 
 6442.50000  -999.250     9.5238    -.0053 -999.250    45.0799    26.4455   17.1491    3.2119    2.7240 
 6443.00000  -999.250     9.5381    -.0079 -999.250    52.3429    24.0419   16.0916    3.1559    2.6942 
 6443.50000  -999.250     9.5525    -.0073 -999.250    56.5929    18.9150   14.0502    3.1548    2.6802 
 6444.00000  -999.250     9.5735    -.0052 -999.250    55.9647    16.1630   11.6339    3.2833    2.6707 
 6444.50000  -999.250     9.6327    -.0023 -999.250    52.2505    14.6038   10.3392    3.2608    2.6422 
 6445.00000  -999.250     9.7570     .0024 -999.250    53.1058    11.2297    8.8549    3.0515    2.6050 
 6445.50000  -999.250     9.8812     .0071 -999.250    59.3957     8.5753    6.8857    2.9025    2.5913 
 6446.00000  -999.250    10.0054     .0114 -999.250    65.8599     7.0370    5.6261    2.8804    2.5720 
 6446.50000  -999.250    10.1297     .0100 -999.250    69.2151     5.7825    4.6548    2.8295    2.5283 
 6447.00000  -999.250    10.2539     .0033 -999.250    66.8967     4.8972    4.0891    2.7309    2.4953 
 6447.50000  -999.250    10.3382     .0010 -999.250    64.1301     4.2786    3.6048    2.6323    2.4873 
 6448.00000  -999.250    10.4155     .0018 -999.250    59.8828     3.7315    3.1864    2.5736    2.4888 
 6448.50000  -999.250    10.4929     .0051 -999.250    54.7772     3.4504    2.9338    2.5933    2.4791 
 6449.00000  -999.250    10.5625     .0074 -999.250    55.0237     3.6396    2.8615    2.6289    2.4601 
 6449.50000  -999.250    10.6156     .0080 -999.250    59.4996     3.6682    3.2498    2.6577    2.4584 
 6450.00000  -999.250    10.6615     .0066 -999.250    58.3060     3.4520    3.0856    2.7082    2.4831 
 6450.50000  -999.250    10.7127     .0040 -999.250    55.5738     3.1698    2.7820    2.7577    2.4894 
 6451.00000  -999.250    10.7526     .0008 -999.250    55.6798     2.6802    2.3886    2.6640    2.4517 
 6451.50000  -999.250    10.7883    -.0023 -999.250    53.8181     2.4182    2.1143    2.5401    2.4126 
 6452.00000  -999.250    10.8126    -.0064 -999.250    53.9023     2.3844    2.0763    2.5131    2.3971 
 6452.50000  -999.250    10.8369    -.0108 -999.250    57.5232     2.3635    2.0574    2.5902    2.3861 
 6453.00000  -999.250    10.8638    -.0095 -999.250    60.4259     2.4220    2.0675    2.6705    2.3930 
 6453.50000  -999.250    10.8876    -.0055 -999.250    57.1883     2.4941    2.1747    2.7375    2.4089 
 6454.00000  -999.250    10.9049     .0002 -999.250    55.1542     2.5272    2.2551    2.7199    2.4207 
 6454.50000  -999.250    10.9200     .0059 -999.250    56.6968     2.5431    2.1993    2.7183    2.4315 
 6455.00000  -999.250    10.9539     .0107 -999.250    58.3530     2.5467    2.1336    2.7577    2.4432 
 6455.50000  -999.250    10.9903     .0142 -999.250    57.5325     2.4135    2.0148    2.9215    2.4312 
 6456.00000  -999.250    10.9798     .0132 -999.250    54.6035     2.3659    1.9154    3.5027    2.4159 
 6456.50000  -999.250    10.9581     .0085 -999.250    51.4201     2.3432    1.8887    4.3601    2.4154 
 6457.00000  -999.250    10.9438     .0003 -999.250    50.6207     2.3505    1.8664    5.0079    2.4030 
 6457.50000  -999.250    10.9667    -.0056 -999.250    50.8451     2.3907    1.8453    4.8222    2.3926 
 6458.00000  -999.250    10.9999    -.0090 -999.250    48.7984     2.4417    1.8448    4.1602    2.3800 
 6458.50000  -999.250    11.0331    -.0118 -999.250    49.5964     2.5284    1.8879    3.5342    2.3644 
 6459.00000  -999.250    11.0251    -.0126 -999.250    53.8960     2.5902    2.0182    3.1988    2.3676 
 6459.50000  -999.250    11.0442    -.0103 -999.250    54.7419     2.5408    1.9678    3.0111    2.3817 
 6460.00000  -999.250    11.0363    -.0093 -999.250    52.6042     2.5118    1.8844    2.8705    2.4017 
 6460.50000  -999.250    11.0279    -.0085 -999.250    49.8089     2.4640    1.8043    2.8434    2.4119 
 6461.00000  -999.250    11.0249    -.0071 -999.250    51.1891     2.3710    1.7343    3.0139    2.3987 
 6461.50000  -999.250    11.0281    -.0065 -999.250    55.3080     2.3429    1.6909    3.0595    2.3819 
 6462.00000  -999.250    11.0296    -.0094 -999.250    54.9894     2.3693    1.7520    2.9336    2.3759 
 6462.50000  -999.250    11.0296    -.0119 -999.250    49.9380     2.4188    1.7943    2.8078    2.3795 
 6463.00000  -999.250    11.0159    -.0133 -999.250    49.3843     2.4852    1.8685    2.6933    2.3901 
 6463.50000  -999.250    11.0137    -.0146 -999.250    54.7851     2.5211    1.9594    2.5854    2.3863 
 6464.00000  -999.250    11.0116    -.0149 -999.250    56.0598     2.5767    2.0394    2.5042    2.3835 
 6464.50000  -999.250    11.0088    -.0122 -999.250    56.1592     2.7113    2.1483    2.4845    2.4082 
 6465.00000  -999.250    10.9854    -.0069 -999.250    56.9615     2.8349    2.3043    2.5135    2.4254 
