# LAS WORX (tm) v17.01.12 Header Hash (44511) Data Hash (251473119) DO NOT REMOVE THIS LINE
# Original File Owner: ANADARKO\gwm835 (User)
#
~VERSION INFORMATION SECTION
VERS. 2.0 : CWLS LOG ASCII STANDARD-VERSION 2.0
WRAP. NO  : ONE LINE PER DEPTH STEP
#
#MNEM UNIT         VALUE/NAME             DESCRIPTION  
#---- ---- --------------------------   ---------------
~WELL INFORMATION SECTION
STRT.F                     190.00000 : TOP DEPTH
STOP.F                   16132.00000 : BOTTOM DEPTH
STEP.F                       0.50000 : DEPTH INCREMENT
NULL.                       -999.250 : NULL VALUE
API .                 42495335780000 : WELL API
CNTY.                        WINKLER : COUNTY
COMP.                 XTO ENERGY INC : OPERATOR
EGL .                           2826 : GROUND LEVEL
EKB .                           2849 : KB ELEVATION
EPD .                            0.0 : ELEV PERM DATUM
FLD .                        WINKLER : FIELD NAME
LAT .                       31.73723 : SURF. LATITUDE
LMF .                             KB : LOGS MEAS FROM
LON .                     -103.26065 : SURF. LONGITUDE
SPUD.                     2014/09/13 : SPUD DATE
STAT.                             TX : STATE
UWI .                 42495335780000 : UWI
WELL.      UNIVERSITY BLOCK 21 1804H : NAME
#
# MNEM   UNIT   API CODES                     DESCRIPTION                 
#------- ---- -------------   --------------------------------------------
#=========                                        ========    == ===========
~CURVE INFORMATION SECTION
DEPT   .F     00 001 00 00 : 1  DEPTH
RAW_RESA34.OHMM               : 2  ARC ATTENUATION RESISTIVITY 34 INCH SPAC (Original mnemonic = A34H)
RAW_CALX.IN                 : 4  CALIPER FROM DENSITY LOG (Original mnemonic = CALD)
RAW_DRHO.G/CC               : 5  DENSITY CORRECTION (Original mnemonic = DCOR)
RAW_GR .GAPI               : 7  GAMMA RAY (Original mnemonic = GR)
RAW_GR .GAPI               : 8  GAMMA RAY FROM DENSITY LOG (Original mnemonic = GRD)
RAW_LLD.OHMM               : 9  LATEROLOG DEEP RESISTIVITY (Original mnemonic = LLD)
RAW_LLS.OHMM               : 10  LATEROLOG SHALLOW RESISTIVITY (Original mnemonic = LLS)
RAW_PEF.B/E                : 15  PHOTOELECTRIC CROSS SECTION (Original mnemonic = PE)
RAW_RHOB.G/CC               : 16  BULK DENSITY (Original mnemonic = RHOB)
#
#MNEM UNIT  VALUE/NAME         DESCRIPTION    
#---- ---- -------------   -------------------
~PARAMETERS INFORMATION SECTION
LNAM.         COMPOSITE : NAME
LTYP.          PURCHASE : LOG TYPE
LVSN.                 1 : LOG VERSION
BHT .DEGF          0723 : BH TEMP
BLI .FT        14211.92 : BOTTOM DEPTH LOGGED
BHIS.                RC : BRIEF HISTORY
CLNT.               TGS : CLIENT
DMF .                DF : DRILL MEAS FROM
FHIS.      RAW-LAS/COPY : FULL HISTORY
EKB .FT            2849 : KB ELEVATION
LMF .                DF : LOGS MEAS FROM
DATE.                10 : RUN DATE
TLI .FT        11222.42 : TOP DEPTH LOGGED
#
#   DEPT     RAW_RESA34 RAW_CALX  RAW_DRHO   RAW_GR    RAW_GR    RAW_LLD    RAW_LLS   RAW_PEF  RAW_RHOB  
#----------- ---------- --------- --------- --------- --------- ---------- --------- --------- --------- 
~ASCII LOG DATA
# ...
 9353.00000  -999.250     9.0248    -.0116 -999.250    60.2710   107.4626   77.7792    3.0340    2.5693 
 9353.50000  -999.250     9.0227    -.0096 -999.250    70.3835   102.3336   76.2183    2.8928    2.5653 
 9354.00000  -999.250     9.0206    -.0080 -999.250    74.1794   117.6756   88.2805    2.8212    2.5593 
 9354.50000  -999.250     9.0185    -.0064 -999.250    78.4049   129.3968  100.8961    2.8458    2.5399 
 9355.00000  -999.250     9.0165    -.0047 -999.250    80.9171   132.7790  108.4341    2.8720    2.5301 
 9355.50000  -999.250     9.0191    -.0024 -999.250    88.3871   119.6534   97.8966    2.8195    2.5303 
 9356.00000  -999.250     9.0288     .0001 -999.250   104.9943   108.0907   81.7101    2.7509    2.5428 
 9356.50000  -999.250     9.0384     .0027 -999.250   113.1271    97.6525   73.9831    2.7261    2.5510 
 9357.00000  -999.250     9.0426     .0051 -999.250   106.3601    96.5876   74.9400    2.8187    2.5560 
 9357.50000  -999.250     9.0170     .0075 -999.250    94.2854    97.3702   74.5394    2.9694    2.5627 
 9358.00000  -999.250     9.0004     .0077 -999.250    79.3712   102.0661   77.8496    3.0077    2.5739 
 9358.50000  -999.250     8.9957     .0055 -999.250    78.2877   100.2420   80.0461    3.0607    2.5655 
 9359.00000  -999.250     8.9911     .0036 -999.250    86.7183    94.6741   70.1402    3.0801    2.5421 
 9359.50000  -999.250     8.9865     .0018 -999.250    92.5118    99.4096   74.0652    3.0291    2.5319 
 9360.00000  -999.250     9.0005    -.0001 -999.250    86.3718   103.4219   79.6583    2.9781    2.5319 
 9360.50000  -999.250     9.0059    -.0003 -999.250    71.1724   116.9064   90.3186    2.9332    2.5406 
 9361.00000  -999.250     8.9945     .0019 -999.250    58.5384   144.9146  125.7274    2.9635    2.5535 
 9361.50000  -999.250     8.9799     .0041 -999.250    58.4231   117.2680  103.9070    3.0414    2.5565 
 9362.00000  -999.250     8.9717     .0063 -999.250    52.0584   101.7366   79.0361    3.0620    2.5662 
 9362.50000  -999.250     8.9754     .0099 -999.250    48.4785    86.4533   61.8116    2.9346    2.5777 
 9363.00000  -999.250     8.9790     .0140 -999.250    65.4972    71.5978   49.7625    2.9166    2.5785 
 9363.50000  -999.250     8.9827     .0164 -999.250    86.2670    70.7042   51.4181    3.0051    2.5744 
 9364.00000  -999.250     8.9864     .0153 -999.250    88.2552    75.1227   54.9592    3.0517    2.5578 
 9364.50000  -999.250     8.9900     .0126 -999.250    92.4231    77.8088   57.4913    2.9567    2.5387 
 9365.00000  -999.250     8.9937     .0077 -999.250    98.7933    79.7315   60.8657    2.8738    2.5379 
 9365.50000  -999.250     8.9973     .0028 -999.250    97.8902    80.0794   62.2540    2.8623    2.5378 
 9366.00000  -999.250     9.0010    -.0009 -999.250    94.2428    79.4775   59.7920    2.8900    2.5224 
 9366.50000  -999.250     9.0047    -.0039 -999.250    93.8747    83.6820   63.9543    2.9555    2.5179 
 9367.00000  -999.250     9.0026    -.0056 -999.250    96.1186    86.3008   64.4844    2.9662    2.5312 
 9367.50000  -999.250     8.9972    -.0044 -999.250   101.5819    93.5446   69.4159    2.9311    2.5434 
 9368.00000  -999.250     8.9917    -.0014 -999.250   106.0809    99.7588   73.2482    2.8730    2.5464 
 9368.50000  -999.250     8.9863     .0029 -999.250   104.1050    98.8394   69.8153    2.8013    2.5443 
 9369.00000  -999.250     9.0024     .0071 -999.250    96.0544    92.8624   66.5434    2.7618    2.5374 
 9369.50000  -999.250     9.0199     .0114 -999.250    89.0735    87.3952   61.0945    2.7963    2.5384 
 9370.00000  -999.250     9.0375     .0164 -999.250    89.5154    84.6427   58.0856    2.8967    2.5484 
 9370.50000  -999.250     9.0287     .0212 -999.250    86.1437    81.2658   55.0052    3.0082    2.5633 
 9371.00000  -999.250     8.9901     .0239 -999.250    76.8325    84.2584   56.4073    3.0565    2.5817 
 9371.50000  -999.250     8.9515     .0230 -999.250    69.5052   112.4552   76.5533    3.0737    2.5788 
 9372.00000  -999.250     8.9462     .0191 -999.250    70.5366   136.5040  111.7653    3.1495    2.5755 
 9372.50000  -999.250     8.9443     .0152 -999.250    63.3402   128.7733  123.1665    3.2404    2.5852 
 9373.00000  -999.250     8.9424     .0069 -999.250    43.8625   148.7666  131.2784    3.3064    2.6001 
 9373.50000  -999.250     8.9405     .0064 -999.250    31.4828   164.0771  147.8350    3.3862    2.6176 
 9374.00000  -999.250     8.9386     .0064 -999.250    32.3027   144.5238  134.1057    3.4523    2.6349 
 9374.50000  -999.250     8.9367     .0062 -999.250    28.0888   120.1488  115.7548    3.3676    2.6379 
 9375.00000  -999.250     8.9348     .0012 -999.250    28.3780   111.1440  106.6617    3.2475    2.6156 
 9375.50000  -999.250     8.9328    -.0038 -999.250    44.0585    79.0538   71.1062    3.0448    2.5826 
 9376.00000  -999.250     8.9309    -.0100 -999.250    63.3783    61.7211   50.9572    2.8402    2.5519 
 9376.50000  -999.250     8.9290    -.0171 -999.250    78.4424    60.4444   48.1666    2.7070    2.5343 
 9377.00000  -999.250     8.9271    -.0245 -999.250    85.0934    63.1798   51.4535    2.7392    2.5170 
 9377.50000  -999.250     8.9258    -.0272 -999.250    83.6483    76.7751   59.0833    2.8640    2.5124 
 9378.00000  -999.250     8.9277    -.0264 -999.250    77.7266   104.6128   78.7095    2.9969    2.5270 
 9378.50000  -999.250     8.9296    -.0193 -999.250    61.8722   160.1742  135.0157    3.1131    2.5520 
 9379.00000  -999.250     8.9314    -.0108 -999.250    39.5211   331.8499  255.7833    3.1180    2.5828 
 9379.50000  -999.250     8.9333    -.0025 -999.250    23.4670   867.6898 1960.3348    3.2931    2.6090 
 9380.00000  -999.250     8.9352     .0026 -999.250    18.9159   504.4254  773.8199    3.6940    2.6415 
 9380.50000  -999.250     8.9371     .0077 -999.250    24.7467   206.9665  174.2083    3.7774    2.6598 
 9381.00000  -999.250     8.9389     .0112 -999.250    41.8421   159.1679  121.1785    3.3261    2.6469 
 9381.50000  -999.250     8.9408     .0085 -999.250    54.5317   123.3554   95.5057    3.0654    2.6261 
 9382.00000  -999.250     8.9427     .0052 -999.250    57.7518   104.0178   82.2310    3.1284    2.6122 
 9382.50000  -999.250     8.9445     .0015 -999.250    64.5356    95.2726   74.5900    3.2430    2.6146 
 9383.00000  -999.250     8.9511    -.0022 -999.250    78.4571    87.3808   63.1369    3.2481    2.6000 
 9383.50000  -999.250     8.9680    -.0059 -999.250    88.2011    85.0974   61.9481    3.0920    2.5663 
 9384.00000  -999.250     8.9848    -.0102 -999.250    91.3636    91.0820   66.6079    2.8860    2.5376 
 9384.50000  -999.250     9.0016    -.0139 -999.250    98.7516   107.5089   79.2244    2.8210    2.5173 
 9385.00000  -999.250     9.0184    -.0163 -999.250    97.4108   132.5499   96.3351    2.8654    2.5112 
 9385.50000  -999.250     9.0352    -.0184 -999.250    89.8548   160.1371  113.3478    2.8748    2.5107 
 9386.00000  -999.250     9.0520    -.0152 -999.250    87.1258   189.0148  149.6072    2.8503    2.5073 
 9386.50000  -999.250     9.0667    -.0106 -999.250    90.0012   171.7088  135.0894    2.8420    2.5056 
 9387.00000  -999.250     9.0695    -.0070 -999.250    95.5069   125.8102  104.3929    2.8467    2.5159 
 9387.50000  -999.250     9.0722    -.0040 -999.250   103.2528    91.2148   69.5785    2.8430    2.5371 
 9388.00000  -999.250     9.0750    -.0041 -999.250   113.7408    72.8412   53.8322    2.9134    2.5495 
 9388.50000  -999.250     9.0778    -.0040 -999.250   112.3851    61.9864   45.1860    3.0431    2.5464 
 9389.00000  -999.250     9.0806    -.0050 -999.250   100.7211    57.6245   41.4627    3.0970    2.5449 
 9389.50000  -999.250     9.0834    -.0049 -999.250    98.4161    56.5271   41.1160    3.0772    2.5510 
 9390.00000  -999.250     9.0861     .0008 -999.250   108.5942    58.5697   42.5622    3.0420    2.5505 
 9390.50000  -999.250     9.0858     .0065 -999.250   108.4516    60.9886   45.2309    3.0068    2.5451 
 9391.00000  -999.250     9.0801     .0090 -999.250   103.0353    62.8298   47.7300    2.9716    2.5444 
