# LAS WORX (tm) v17.01.12 Header Hash (44511) Data Hash (251473119) DO NOT REMOVE THIS LINE
# Original File Owner: ANADARKO\gwm835 (User)
#
~VERSION INFORMATION SECTION
VERS. 2.0 : CWLS LOG ASCII STANDARD-VERSION 2.0
WRAP. NO  : ONE LINE PER DEPTH STEP
#
#MNEM UNIT         VALUE/NAME             DESCRIPTION  
#---- ---- --------------------------   ---------------
~WELL INFORMATION SECTION
STRT.F                     190.00000 : TOP DEPTH
STOP.F                   16132.00000 : BOTTOM DEPTH
STEP.F                       0.50000 : DEPTH INCREMENT
NULL.                       -999.250 : NULL VALUE
API .                 42495335780000 : WELL API
CNTY.                        WINKLER : COUNTY
COMP.                 XTO ENERGY INC : OPERATOR
EGL .                           2826 : GROUND LEVEL
EKB .                           2849 : KB ELEVATION
EPD .                            0.0 : ELEV PERM DATUM
FLD .                        WINKLER : FIELD NAME
LAT .                       31.73723 : SURF. LATITUDE
LMF .                             KB : LOGS MEAS FROM
LON .                     -103.26065 : SURF. LONGITUDE
SPUD.                     2014/09/13 : SPUD DATE
STAT.                             TX : STATE
UWI .                 42495335780000 : UWI
WELL.      UNIVERSITY BLOCK 21 1804H : NAME
#
# MNEM   UNIT   API CODES                     DESCRIPTION                 
#------- ---- -------------   --------------------------------------------
#=========                                        ========    == ===========
~CURVE INFORMATION SECTION
DEPT   .F     00 001 00 00 : 1  DEPTH
RAW_RESA34.OHMM               : 2  ARC ATTENUATION RESISTIVITY 34 INCH SPAC (Original mnemonic = A34H)
RAW_CALX.IN                 : 4  CALIPER FROM DENSITY LOG (Original mnemonic = CALD)
RAW_DRHO.G/CC               : 5  DENSITY CORRECTION (Original mnemonic = DCOR)
RAW_GR .GAPI               : 7  GAMMA RAY (Original mnemonic = GR)
RAW_GR .GAPI               : 8  GAMMA RAY FROM DENSITY LOG (Original mnemonic = GRD)
RAW_LLD.OHMM               : 9  LATEROLOG DEEP RESISTIVITY (Original mnemonic = LLD)
RAW_LLS.OHMM               : 10  LATEROLOG SHALLOW RESISTIVITY (Original mnemonic = LLS)
RAW_PEF.B/E                : 15  PHOTOELECTRIC CROSS SECTION (Original mnemonic = PE)
RAW_RHOB.G/CC               : 16  BULK DENSITY (Original mnemonic = RHOB)
#
#MNEM UNIT  VALUE/NAME         DESCRIPTION    
#---- ---- -------------   -------------------
~PARAMETERS INFORMATION SECTION
LNAM.         COMPOSITE : NAME
LTYP.          PURCHASE : LOG TYPE
LVSN.                 1 : LOG VERSION
BHT .DEGF          0723 : BH TEMP
BLI .FT        14211.92 : BOTTOM DEPTH LOGGED
BHIS.                RC : BRIEF HISTORY
CLNT.               TGS : CLIENT
DMF .                DF : DRILL MEAS FROM
FHIS.      RAW-LAS/COPY : FULL HISTORY
EKB .FT            2849 : KB ELEVATION
LMF .                DF : LOGS MEAS FROM
DATE.                10 : RUN DATE
TLI .FT        11222.42 : TOP DEPTH LOGGED
#
#   DEPT     RAW_RESA34 RAW_CALX  RAW_DRHO   RAW_GR    RAW_GR    RAW_LLD    RAW_LLS   RAW_PEF  RAW_RHOB  
#----------- ---------- --------- --------- --------- --------- ---------- --------- --------- --------- 
~ASCII LOG DATA
# ...
10200.00000  -999.250     8.8898    -.0157 -999.250    98.7337    66.0361   62.9033    3.2191    2.5055 
10200.50000  -999.250     8.8888    -.0132 -999.250    93.1502    63.0547   62.0092    3.4337    2.5279 
10201.00000  -999.250     8.8886    -.0116 -999.250    91.2290    55.8470   52.5222    3.4345    2.5412 
10201.50000  -999.250     8.8883    -.0075 -999.250    91.9121    42.3560   41.3223    3.0553    2.5294 
10202.00000  -999.250     8.8991    -.0023 -999.250    97.8585    44.1867   39.7266    2.8373    2.5225 
10202.50000  -999.250     8.9106     .0019 -999.250   100.0139    51.9875   48.4545    3.0092    2.5399 
10203.00000  -999.250     8.9233     .0059 -999.250    88.9972    62.8054   56.1892    3.4829    2.5746 
10203.50000  -999.250     8.9258     .0097 -999.250    71.5862   107.4752   96.0124    3.8823    2.5957 
10204.00000  -999.250     8.9258     .0103 -999.250    65.6149   142.7063  121.2412    3.8501    2.5761 
10204.50000  -999.250     8.9258     .0098 -999.250    73.5723   155.9396  124.5835    3.7395    2.5720 
10205.00000  -999.250     8.9298     .0086 -999.250    64.8836   195.5675  168.3025    4.0435    2.5943 
10205.50000  -999.250     8.9352     .0054 -999.250    48.6052   258.5437  248.3503    4.3513    2.6117 
10206.00000  -999.250     8.9406    -.0004 -999.250    43.1950   273.3504  240.9315    4.3068    2.6147 
10206.50000  -999.250     8.9460    -.0063 -999.250    51.6328   238.8403  201.8048    4.1215    2.6158 
10207.00000  -999.250     8.9514    -.0111 -999.250    60.2142   175.9855  154.4455    3.9944    2.6195 
10207.50000  -999.250     8.9568    -.0120 -999.250    63.0821   137.3593  111.2731    3.9210    2.6038 
10208.00000  -999.250     8.9622    -.0141 -999.250    70.7890   138.0078  113.3265    3.8850    2.5753 
10208.50000  -999.250     8.9651    -.0173 -999.250    76.7326   135.7024  113.5321    3.8866    2.5550 
10209.00000  -999.250     8.9560    -.0225 -999.250    69.4792   125.0415  109.4035    3.8892    2.5343 
10209.50000  -999.250     8.9514    -.0220 -999.250    67.1640   129.6274  115.4755    3.6570    2.5047 
10210.00000  -999.250     8.9515    -.0081 -999.250    71.8744   117.8659  106.1311    3.3471    2.4738 
10210.50000  -999.250     8.9517     .0091 -999.250    77.4309   105.5475   94.4492    3.1463    2.4698 
10211.00000  -999.250     8.9534     .0092 -999.250    81.6290    98.7361   91.0523    3.0362    2.4834 
10211.50000  -999.250     8.9643     .0082 -999.250    88.0204    86.8281   79.2051    3.0111    2.5136 
10212.00000  -999.250     8.9674     .0114 -999.250    90.1783    79.3913   72.0875    3.1922    2.5431 
10212.50000  -999.250     8.9679     .0150 -999.250    94.5587    76.8555   69.0237    3.4690    2.5837 
10213.00000  -999.250     8.9629     .0178 -999.250    96.7508    79.8036   67.3650    3.6038    2.6092 
10213.50000  -999.250     8.9535     .0158 -999.250    87.6775    93.2018   80.0080    3.7353    2.6150 
10214.00000  -999.250     8.9474     .0133 -999.250    80.2254   114.6039  103.8705    3.8072    2.6189 
10214.50000  -999.250     8.9494     .0117 -999.250    76.7725   124.2081  118.2684    3.7741    2.6099 
10215.00000  -999.250     8.9485     .0083 -999.250    78.2319   103.5766   88.4283    3.6248    2.5933 
10215.50000  -999.250     8.9615     .0036 -999.250    85.9516    87.1188   76.7065    3.4265    2.5564 
10216.00000  -999.250     8.9461    -.0023 -999.250    95.7373    79.6006   67.1370    3.3424    2.5211 
10216.50000  -999.250     8.9423    -.0084 -999.250   103.3483    85.6517   77.5305    3.3121    2.5111 
10217.00000  -999.250     8.9462    -.0153 -999.250   101.5073    86.9220   81.1574    3.2555    2.5252 
10217.50000  -999.250     8.9463    -.0218 -999.250    86.0119    68.2258   63.0054    3.1830    2.5391 
10218.00000  -999.250     8.9483    -.0261 -999.250    74.8492    59.9813   55.0619    3.1160    2.5327 
10218.50000  -999.250     8.9528    -.0282 -999.250    72.6223    56.0429   49.4296    3.0316    2.5147 
10219.00000  -999.250     8.9508    -.0307 -999.250    75.8423    56.8671   50.1722    2.9184    2.4865 
10219.50000  -999.250     8.9471    -.0321 -999.250    78.1845    64.1772   56.1662    2.8549    2.4767 
10220.00000  -999.250     8.9472    -.0293 -999.250    83.6086    72.2173   68.8625    2.8321    2.4886 
10220.50000  -999.250     8.9497    -.0248 -999.250    90.4519    70.3406   67.2374    2.8438    2.4860 
10221.00000  -999.250     8.9574    -.0206 -999.250    89.4162    55.7341   50.4496    2.8969    2.4921 
10221.50000  -999.250     8.9655    -.0165 -999.250    89.1295    39.2457   37.6100    3.0408    2.5277 
10222.00000  -999.250     8.9658    -.0156 -999.250    93.2457    32.2040   30.2468    3.1093    2.5432 
10222.50000  -999.250     8.9657    -.0153 -999.250    96.2808    26.0793   24.9177    3.1210    2.5402 
10223.00000  -999.250     8.9656    -.0166 -999.250    93.4228    23.2301   22.9240    3.0387    2.5418 
10223.50000  -999.250     8.9654    -.0189 -999.250    88.8617    23.8552   23.2756    2.9212    2.5406 
10224.00000  -999.250     8.9653    -.0197 -999.250    82.4110    24.2238   22.9841    2.8208    2.5352 
10224.50000  -999.250     8.9651    -.0192 -999.250    80.8070    26.2121   25.1511    2.8269    2.5259 
10225.00000  -999.250     8.9650    -.0191 -999.250    80.7000    33.5170   31.6637    2.8415    2.5143 
10225.50000  -999.250     8.9649    -.0191 -999.250    73.3118    40.5550   39.0434    3.0039    2.5229 
10226.00000  -999.250     8.9648    -.0173 -999.250    71.6712    46.6990   45.1465    3.2206    2.5231 
10226.50000  -999.250     8.9648    -.0146 -999.250    79.8272    48.8672   45.9748    3.2552    2.5042 
10227.00000  -999.250     8.9649    -.0126 -999.250    85.1664    50.2704   42.5788    3.1959    2.4990 
10227.50000  -999.250     8.9650    -.0106 -999.250    80.1074    58.4029   49.9493    3.1775    2.5186 
10228.00000  -999.250     8.9651    -.0084 -999.250    72.5829    69.3790   66.7425    3.3912    2.5482 
10228.50000  -999.250     8.9652    -.0017 -999.250    73.8388    73.6455   66.6620    3.6836    2.5738 
10229.00000  -999.250     8.9653     .0068 -999.250    88.4767    71.5873   59.3722    3.7263    2.5733 
10229.50000  -999.250     8.9653     .0097 -999.250    95.0360    64.2977   52.4381    3.4339    2.5021 
10230.00000  -999.250     8.9654     .0071 -999.250    86.2447    65.1937   52.7787    3.0064    2.4556 
10230.50000  -999.250     8.9655     .0037 -999.250    82.9794    75.8082   65.1517    2.6203    2.4425 
10231.00000  -999.250     8.9656     .0022 -999.250    86.2286    84.9393   78.5237    2.6818    2.4599 
10231.50000  -999.250     8.9657     .0007 -999.250    81.1018    77.7404   72.8233    2.8022    2.4875 
10232.00000  -999.250     8.9657    -.0008 -999.250    80.6182    70.7664   61.2609    2.9759    2.5120 
10232.50000  -999.250     8.9668    -.0020 -999.250    88.4384    68.5726   59.2425    3.0179    2.5043 
10233.00000  -999.250     8.9678    -.0027 -999.250    91.5449    58.3359   54.4445    2.7991    2.4817 
10233.50000  -999.250     8.9690    -.0017 -999.250    96.9792    46.8447   44.9868    2.6049    2.4730 
10234.00000  -999.250     8.9706     .0006 -999.250   103.8596    41.5555   36.7731    2.7289    2.5007 
10234.50000  -999.250     8.9723     .0028 -999.250   106.0365    38.1757   32.6485    3.0054    2.5409 
10235.00000  -999.250     8.9739     .0050 -999.250   106.9417    41.5441   34.7528    3.2782    2.5612 
10235.50000  -999.250     8.9755     .0024 -999.250    97.9686    53.8169   47.3240    3.5232    2.5627 
10236.00000  -999.250     8.9772    -.0003 -999.250    83.5629    58.2570   53.3566    3.6814    2.5547 
10236.50000  -999.250     8.9788    -.0029 -999.250    78.0965    53.6833   49.1576    3.7388    2.5492 
10237.00000  -999.250     8.9804    -.0026 -999.250    81.0924    49.2138   42.2947    3.6590    2.5444 
10237.50000  -999.250     8.9821    -.0013 -999.250    88.8226    46.6112   40.3318    3.4537    2.5327 
10238.00000  -999.250     8.9837     .0003 -999.250    91.8248    46.1404   39.3992    3.2256    2.5255 
