# LAS WORX (tm) v17.01.12 Header Hash (44511) Data Hash (251473119) DO NOT REMOVE THIS LINE
# Original File Owner: ANADARKO\gwm835 (User)
#
~VERSION INFORMATION SECTION
VERS. 2.0 : CWLS LOG ASCII STANDARD-VERSION 2.0
WRAP. NO  : ONE LINE PER DEPTH STEP
#
#MNEM UNIT         VALUE/NAME             DESCRIPTION  
#---- ---- --------------------------   ---------------
~WELL INFORMATION SECTION
STRT.F                     190.00000 : TOP DEPTH
STOP.F                   16132.00000 : BOTTOM DEPTH
STEP.F                       0.50000 : DEPTH INCREMENT
NULL.                       -999.250 : NULL VALUE
API .                 42495335780000 : WELL API
CNTY.                        WINKLER : COUNTY
COMP.                 XTO ENERGY INC : OPERATOR
EGL .                           2826 : GROUND LEVEL
EKB .                           2849 : KB ELEVATION
EPD .                            0.0 : ELEV PERM DATUM
FLD .                        WINKLER : FIELD NAME
LAT .                       31.73723 : SURF. LATITUDE
LMF .                             KB : LOGS MEAS FROM
LON .                     -103.26065 : SURF. LONGITUDE
SPUD.                     2014/09/13 : SPUD DATE
STAT.                             TX : STATE
UWI .                 42495335780000 : UWI
WELL.      UNIVERSITY BLOCK 21 1804H : NAME
#
# MNEM   UNIT   API CODES                     DESCRIPTION                 
#------- ---- -------------   --------------------------------------------
#=========                                        ========    == ===========
~CURVE INFORMATION SECTION
DEPT   .F     00 001 00 00 : 1  DEPTH
RAW_RESA34.OHMM               : 2  ARC ATTENUATION RESISTIVITY 34 INCH SPAC (Original mnemonic = A34H)
RAW_CALX.IN                 : 4  CALIPER FROM DENSITY LOG (Original mnemonic = CALD)
RAW_DRHO.G/CC               : 5  DENSITY CORRECTION (Original mnemonic = DCOR)
RAW_GR .GAPI               : 7  GAMMA RAY (Original mnemonic = GR)
RAW_GR .GAPI               : 8  GAMMA RAY FROM DENSITY LOG (Original mnemonic = GRD)
RAW_LLD.OHMM               : 9  LATEROLOG DEEP RESISTIVITY (Original mnemonic = LLD)
RAW_LLS.OHMM               : 10  LATEROLOG SHALLOW RESISTIVITY (Original mnemonic = LLS)
RAW_PEF.B/E                : 15  PHOTOELECTRIC CROSS SECTION (Original mnemonic = PE)
RAW_RHOB.G/CC               : 16  BULK DENSITY (Original mnemonic = RHOB)
#
#MNEM UNIT  VALUE/NAME         DESCRIPTION    
#---- ---- -------------   -------------------
~PARAMETERS INFORMATION SECTION
LNAM.         COMPOSITE : NAME
LTYP.          PURCHASE : LOG TYPE
LVSN.                 1 : LOG VERSION
BHT .DEGF          0723 : BH TEMP
BLI .FT        14211.92 : BOTTOM DEPTH LOGGED
BHIS.                RC : BRIEF HISTORY
CLNT.               TGS : CLIENT
DMF .                DF : DRILL MEAS FROM
FHIS.      RAW-LAS/COPY : FULL HISTORY
EKB .FT            2849 : KB ELEVATION
LMF .                DF : LOGS MEAS FROM
DATE.                10 : RUN DATE
TLI .FT        11222.42 : TOP DEPTH LOGGED
#
#   DEPT     RAW_RESA34 RAW_CALX  RAW_DRHO   RAW_GR    RAW_GR    RAW_LLD    RAW_LLS   RAW_PEF  RAW_RHOB  
#----------- ---------- --------- --------- --------- --------- ---------- --------- --------- --------- 
~ASCII LOG DATA
# ...
 8506.00000  -999.250     9.5169     .0160 -999.250    42.1124     4.7947    3.9049    3.3099    2.4826 
 8506.50000  -999.250     9.5179     .0138 -999.250    42.3926     4.7191    3.8774    3.3354    2.4949 
 8507.00000  -999.250     9.5245     .0063 -999.250    44.6044     4.7220    3.7538    3.3983    2.4713 
 8507.50000  -999.250     9.5550     .0042 -999.250    48.0725     4.6956    3.5270    3.4988    2.4521 
 8508.00000  -999.250     9.5475     .0059 -999.250    50.8054     4.8126    3.7691    3.3969    2.4586 
 8508.50000  -999.250     9.5519     .0083 -999.250    53.7974     5.1337    4.0204    3.1407    2.4789 
 8509.00000  -999.250     9.5564     .0141 -999.250    52.2599     6.0113    4.5944    2.9318    2.4960 
 8509.50000  -999.250     9.5608     .0160 -999.250    47.6470     6.2793    5.0321    2.9007    2.5215 
 8510.00000  -999.250     9.5681     .0157 -999.250    46.5272     6.0813    4.9463    2.8809    2.5442 
 8510.50000  -999.250     9.5762     .0141 -999.250    50.4741     5.8704    4.7797    2.8120    2.5266 
 8511.00000  -999.250     9.5843     .0126 -999.250    55.7065     5.1493    4.3197    2.6579    2.4936 
 8511.50000  -999.250     9.5924     .0107 -999.250    51.9097     4.5671    3.8193    2.6356    2.4711 
 8512.00000  -999.250     9.6006     .0110 -999.250    44.7565     4.6454    3.7771    2.7166    2.4625 
 8512.50000  -999.250     9.6070     .0120 -999.250    38.4707     4.8671    4.1367    2.7901    2.4545 
 8513.00000  -999.250     9.6024     .0129 -999.250    38.0018     4.7162    4.0984    2.7963    2.4614 
 8513.50000  -999.250     9.5973     .0154 -999.250    45.0711     4.7441    3.9680    2.8113    2.4654 
 8514.00000  -999.250     9.6002     .0152 -999.250    54.0656     5.2289    4.3090    2.8056    2.4567 
 8514.50000  -999.250     9.5950     .0149 -999.250    58.8370     5.9015    4.5528    2.7201    2.4749 
 8515.00000  -999.250     9.5635     .0200 -999.250    58.4979     8.0932    6.0197    2.5970    2.5216 
 8515.50000  -999.250     9.5118     .0197 -999.250    53.2304    12.0064    9.4266    2.7209    2.5556 
 8516.00000  -999.250     9.3525     .0152 -999.250    50.3008    16.7630   13.6699    2.9871    2.5817 
 8516.50000  -999.250     9.2283     .0081 -999.250    53.0143    18.8633   15.6470    2.9454    2.5945 
 8517.00000  -999.250     9.1651     .0077 -999.250    54.4857    19.0624   16.8131    2.7544    2.5974 
 8517.50000  -999.250     9.1713     .0082 -999.250    56.9066    17.2799   14.1638    2.5937    2.5904 
 8518.00000  -999.250     9.1661     .0071 -999.250    63.4107    17.9240   14.8405    2.6419    2.5762 
 8518.50000  -999.250     9.1498     .0059 -999.250    63.7141    20.1811   16.9306    2.8383    2.5766 
 8519.00000  -999.250     9.1165     .0049 -999.250    64.7022    23.7827   19.5651    2.9892    2.5886 
 8519.50000  -999.250     9.0858     .0038 -999.250    65.3557    29.2418   25.3006    2.8882    2.5984 
 8520.00000  -999.250     9.0828     .0036 -999.250    63.5717    32.8687   28.1933    2.7919    2.6053 
 8520.50000  -999.250     9.0742     .0037 -999.250    68.7323    35.4165   29.8172    2.7988    2.6088 
 8521.00000  -999.250     9.0491     .0059 -999.250    70.9885    42.7562   35.8404    2.8854    2.6093 
 8521.50000  -999.250     9.0177     .0083 -999.250    60.7368    47.8193   40.3307    2.9290    2.6135 
 8522.00000  -999.250     9.0039     .0024 -999.250    57.3079    54.0485   45.7526    2.9303    2.6209 
 8522.50000  -999.250     8.9900    -.0011 -999.250    62.4574    63.8871   53.2955    2.8808    2.6242 
 8523.00000  -999.250     8.9766    -.0034 -999.250    67.4182    74.7103   59.6786    2.7480    2.6151 
 8523.50000  -999.250     8.9687    -.0056 -999.250    74.0054    92.2554   71.0988    2.6851    2.6052 
 8524.00000  -999.250     8.9596    -.0107 -999.250    80.7713   117.5716   96.7013    2.6954    2.6051 
 8524.50000  -999.250     8.9500    -.0149 -999.250    82.2905   138.7945  114.1183    2.7220    2.6099 
 8525.00000  -999.250     8.9387    -.0149 -999.250    74.6384   140.9789  120.3695    2.7326    2.6082 
 8525.50000  -999.250     8.9271    -.0123 -999.250    72.1692   132.8011  113.0647    2.7697    2.6053 
 8526.00000  -999.250     8.9451    -.0095 -999.250    80.0033   112.9403   98.5175    2.8099    2.6096 
 8526.50000  -999.250     8.9640    -.0087 -999.250    81.4643    94.1655   84.7722    2.7803    2.6075 
 8527.00000  -999.250     8.9786    -.0077 -999.250    73.4325    81.0953   74.4904    2.7309    2.6037 
 8527.50000  -999.250     8.9933    -.0065 -999.250    69.1376    69.8897   65.4557    2.7495    2.6097 
 8528.00000  -999.250     9.0099    -.0040 -999.250    66.8395    64.0808   57.2087    2.8248    2.6197 
 8528.50000  -999.250     9.0397    -.0008 -999.250    67.9175    60.7428   54.8925    2.9108    2.6258 
 8529.00000  -999.250     9.0695     .0025 -999.250    71.9584    57.5861   53.2169    2.9598    2.6272 
 8529.50000  -999.250     9.0992     .0059 -999.250    71.3987    58.5968   51.3690    2.9507    2.6268 
 8530.00000  -999.250     9.1290     .0032 -999.250    68.6386    72.4237   58.0576    2.8856    2.6130 
 8530.50000  -999.250     9.1588     .0004 -999.250    63.7295    99.5070   83.2965    3.0041    2.6126 
 8531.00000  -999.250     9.1886    -.0023 -999.250    44.9684   148.1113  126.1257    3.5579    2.6420 
 8531.50000  -999.250     9.2185    -.0046 -999.250    24.3779   145.9435  127.9395    4.2987    2.6644 
 8532.00000  -999.250     9.2343    -.0064 -999.250    19.0450    82.9259   73.0935    4.6494    2.6660 
 8532.50000  -999.250     9.2483    -.0073 -999.250    27.7058    42.1915   37.7960    4.3565    2.6586 
 8533.00000  -999.250     9.2602    -.0079 -999.250    42.6129    25.0248   20.5372    3.7356    2.6256 
 8533.50000  -999.250     9.2721    -.0103 -999.250    54.5278    18.0787   14.1801    3.0678    2.5819 
 8534.00000  -999.250     9.2841    -.0134 -999.250    57.7191    15.0219   11.4423    2.7385    2.5559 
 8534.50000  -999.250     9.2898    -.0153 -999.250    59.8998    14.5243   11.0193    2.5421    2.5509 
 8535.00000  -999.250     9.2882    -.0183 -999.250    66.2069    14.1580   11.3676    2.5681    2.5455 
 8535.50000  -999.250     9.2955    -.0220 -999.250    70.8682    14.1519   11.4549    2.6483    2.5411 
 8536.00000  -999.250     9.3023    -.0229 -999.250    69.6440    13.8095   11.8797    2.5833    2.5404 
 8536.50000  -999.250     9.2985    -.0236 -999.250    66.7054    12.5681   10.1417    2.5435    2.5383 
 8537.00000  -999.250     9.3072    -.0206 -999.250    61.0140    12.4118   10.0395    2.5964    2.5352 
 8537.50000  -999.250     9.3139    -.0172 -999.250    58.0841    12.5043    9.9382    2.6077    2.5295 
 8538.00000  -999.250     9.3219    -.0130 -999.250    58.5707    12.3493    9.8380    2.5656    2.5348 
 8538.50000  -999.250     9.3271    -.0089 -999.250    58.1708    12.8246    9.8560    2.5459    2.5536 
 8539.00000  -999.250     9.3477    -.0070 -999.250    56.9116    13.3844   10.3301    2.6058    2.5681 
 8539.50000  -999.250     9.3733    -.0081 -999.250    54.6236    13.9583   10.2909    2.6280    2.5701 
 8540.00000  -999.250     9.3989    -.0102 -999.250    53.6356    14.4858   10.7773    2.6511    2.5662 
 8540.50000  -999.250     9.4245    -.0122 -999.250    59.5923    14.7937   10.9446    2.6597    2.5609 
 8541.00000  -999.250     9.4500    -.0164 -999.250    68.5855    14.2890   10.5940    2.6260    2.5543 
 8541.50000  -999.250     9.4815    -.0196 -999.250    69.4437    14.1189   10.0224    2.5339    2.5494 
 8542.00000  -999.250     9.5193    -.0201 -999.250    63.6496    14.0314    9.7110    2.4870    2.5517 
 8542.50000  -999.250     9.5499    -.0225 -999.250    60.7488    14.4059   10.3924    2.4631    2.5565 
 8543.00000  -999.250     9.5689    -.0194 -999.250    64.4099    14.4034   10.6520    2.5150    2.5617 
 8543.50000  -999.250     9.5959    -.0192 -999.250    74.1434    13.9997   10.5449    2.6009    2.5592 
 8544.00000  -999.250     9.6158    -.0163 -999.250    75.5493    12.8920    9.8238    2.6500    2.5526 
