# LAS WORX (tm) v17.01.12 Header Hash (44511) Data Hash (251473119) DO NOT REMOVE THIS LINE
# Original File Owner: ANADARKO\gwm835 (User)
#
~VERSION INFORMATION SECTION
VERS. 2.0 : CWLS LOG ASCII STANDARD-VERSION 2.0
WRAP. NO  : ONE LINE PER DEPTH STEP
#
#MNEM UNIT         VALUE/NAME             DESCRIPTION  
#---- ---- --------------------------   ---------------
~WELL INFORMATION SECTION
STRT.F                     190.00000 : TOP DEPTH
STOP.F                   16132.00000 : BOTTOM DEPTH
STEP.F                       0.50000 : DEPTH INCREMENT
NULL.                       -999.250 : NULL VALUE
API .                 42495335780000 : WELL API
CNTY.                        WINKLER : COUNTY
COMP.                 XTO ENERGY INC : OPERATOR
EGL .                           2826 : GROUND LEVEL
EKB .                           2849 : KB ELEVATION
EPD .                            0.0 : ELEV PERM DATUM
FLD .                        WINKLER : FIELD NAME
LAT .                       31.73723 : SURF. LATITUDE
LMF .                             KB : LOGS MEAS FROM
LON .                     -103.26065 : SURF. LONGITUDE
SPUD.                     2014/09/13 : SPUD DATE
STAT.                             TX : STATE
UWI .                 42495335780000 : UWI
WELL.      UNIVERSITY BLOCK 21 1804H : NAME
#
# MNEM   UNIT   API CODES                     DESCRIPTION                 
#------- ---- -------------   --------------------------------------------
#=========                                        ========    == ===========
~CURVE INFORMATION SECTION
DEPT   .F     00 001 00 00 : 1  DEPTH
RAW_RESA34.OHMM               : 2  ARC ATTENUATION RESISTIVITY 34 INCH SPAC (Original mnemonic = A34H)
RAW_CALX.IN                 : 4  CALIPER FROM DENSITY LOG (Original mnemonic = CALD)
RAW_DRHO.G/CC               : 5  DENSITY CORRECTION (Original mnemonic = DCOR)
RAW_GR .GAPI               : 7  GAMMA RAY (Original mnemonic = GR)
RAW_GR .GAPI               : 8  GAMMA RAY FROM DENSITY LOG (Original mnemonic = GRD)
RAW_LLD.OHMM               : 9  LATEROLOG DEEP RESISTIVITY (Original mnemonic = LLD)
RAW_LLS.OHMM               : 10  LATEROLOG SHALLOW RESISTIVITY (Original mnemonic = LLS)
RAW_PEF.B/E                : 15  PHOTOELECTRIC CROSS SECTION (Original mnemonic = PE)
RAW_RHOB.G/CC               : 16  BULK DENSITY (Original mnemonic = RHOB)
#
#MNEM UNIT  VALUE/NAME         DESCRIPTION    
#---- ---- -------------   -------------------
~PARAMETERS INFORMATION SECTION
LNAM.         COMPOSITE : NAME
LTYP.          PURCHASE : LOG TYPE
LVSN.                 1 : LOG VERSION
BHT .DEGF          0723 : BH TEMP
BLI .FT        14211.92 : BOTTOM DEPTH LOGGED
BHIS.                RC : BRIEF HISTORY
CLNT.               TGS : CLIENT
DMF .                DF : DRILL MEAS FROM
FHIS.      RAW-LAS/COPY : FULL HISTORY
EKB .FT            2849 : KB ELEVATION
LMF .                DF : LOGS MEAS FROM
DATE.                10 : RUN DATE
TLI .FT        11222.42 : TOP DEPTH LOGGED
#
#   DEPT     RAW_RESA34 RAW_CALX  RAW_DRHO   RAW_GR    RAW_GR    RAW_LLD    RAW_LLS   RAW_PEF  RAW_RHOB  
#----------- ---------- --------- --------- --------- --------- ---------- --------- --------- --------- 
~ASCII LOG DATA
# ...
 8121.00000  -999.250     9.2275    -.0125 -999.250    56.6138    29.2781   28.0526    2.8965    2.5656 
 8121.50000  -999.250     9.2271    -.0134 -999.250    53.7420    29.4524   26.9037    2.8211    2.5638 
 8122.00000  -999.250     9.2239    -.0124 -999.250    57.6640    33.6380   28.4046    2.6374    2.5561 
 8122.50000  -999.250     9.2119    -.0121 -999.250    67.1222    46.4665   37.0373    2.4820    2.5488 
 8123.00000  -999.250     9.1953    -.0139 -999.250    77.7978   100.4467   72.7847    2.4924    2.5516 
 8123.50000  -999.250     9.1806    -.0153 -999.250    87.3597   269.4508  200.3373    2.6403    2.5579 
 8124.00000  -999.250     9.1799    -.0161 -999.250    99.7101   501.4127  427.7315    2.8871    2.5600 
 8124.50000  -999.250     9.1294    -.0165 -999.250   123.1219   845.6419  647.7253    3.1210    2.5301 
 8125.00000  -999.250     9.0855    -.0168 -999.250   135.1149   873.7332  662.2025    3.2840    2.5120 
 8125.50000  -999.250     9.0853    -.0212 -999.250   142.8008   742.6094  551.2284    3.5333    2.5475 
 8126.00000  -999.250     9.0850    -.0199 -999.250   182.3761   534.6752  423.7463    3.7538    2.5900 
 8126.50000  -999.250     9.0665    -.0165 -999.250   193.5825   359.8179  279.7209    3.6719    2.5900 
 8127.00000  -999.250     9.0476    -.0118 -999.250   149.0987   251.4024  190.2032    3.3919    2.5893 
 8127.50000  -999.250     9.0286    -.0091 -999.250   128.6541   188.9565  157.0130    3.1613    2.6088 
 8128.00000  -999.250     8.9899    -.0078 -999.250   108.4189   156.4682  131.7646    3.1028    2.6299 
 8128.50000  -999.250     9.0103    -.0064 -999.250    95.3655   139.8660  126.9969    3.0710    2.6350 
 8129.00000  -999.250     9.0250    -.0057 -999.250    91.3998   113.4800  108.4024    2.9711    2.6167 
 8129.50000  -999.250     9.0379    -.0051 -999.250    88.6929   101.9125   93.7728    2.9423    2.6005 
 8130.00000  -999.250     9.0528    -.0027 -999.250    87.4824    94.3877   85.2080    2.9830    2.5987 
 8130.50000  -999.250     9.0681     .0014 -999.250    82.0152    93.3598   84.1295    3.0316    2.5981 
 8131.00000  -999.250     9.0825     .0069 -999.250    70.3273    97.7551   88.6497    3.0803    2.6000 
 8131.50000  -999.250     9.0922     .0144 -999.250    68.5748   104.4254   94.8820    3.1300    2.6120 
 8132.00000  -999.250     9.1158     .0188 -999.250    79.4465   111.8551  101.3021    3.2747    2.6351 
 8132.50000  -999.250     9.1196     .0212 -999.250    96.3722   116.3674  102.3247    3.4411    2.6459 
 8133.00000  -999.250     9.1231     .0202 -999.250   106.2002   123.1058  103.5632    3.3158    2.6353 
 8133.50000  -999.250     9.1254     .0215 -999.250   120.1101   132.9835  110.3754    3.1115    2.6174 
 8134.00000  -999.250     9.1313     .0218 -999.250   134.8092   157.8544  128.0625    3.0081    2.6093 
 8134.50000  -999.250     9.1401     .0207 -999.250   137.2031   198.7107  161.4272    3.1347    2.6123 
 8135.00000  -999.250     9.1496     .0164 -999.250   122.7326   232.1371  182.7306    3.2339    2.6162 
 8135.50000  -999.250     9.1596     .0083 -999.250   101.5487   273.7621  216.7160    3.0721    2.6230 
 8136.00000  -999.250     9.1562     .0057 -999.250    83.6382   322.7437  245.5882    2.9788    2.6267 
 8136.50000  -999.250     9.1765     .0031 -999.250    74.1964   317.5733  253.7829    2.9379    2.6220 
 8137.00000  -999.250     9.1843     .0020 -999.250    65.8017   235.4333  248.8566    2.9508    2.6174 
 8137.50000  -999.250     9.1877     .0059 -999.250    55.7422   112.5828  132.0050    3.1457    2.6184 
 8138.00000  -999.250     9.2337     .0107 -999.250    46.9249    77.0263   75.7356    3.5840    2.6184 
 8138.50000  -999.250     9.3251     .0156 -999.250    33.3249    58.6202   49.7914    4.2462    2.5987 
 8139.00000  -999.250     9.4363     .0161 -999.250    20.8974    60.2829   47.0722    4.8072    2.5884 
 8139.50000  -999.250     9.5204     .0180 -999.250    12.9354    91.7535   71.9352    4.8702    2.6091 
 8140.00000  -999.250     9.5917     .0193 -999.250    12.1583   141.0626  126.0406    4.7375    2.6487 
 8140.50000  -999.250     9.6444     .0207 -999.250    14.2260   226.4048  203.3891    4.6962    2.6816 
 8141.00000  -999.250     9.6751     .0233 -999.250    16.9747   325.9904  288.7991    4.7914    2.7043 
 8141.50000  -999.250     9.6906     .0257 -999.250    18.6715   276.7395  222.9610    4.9103    2.7180 
 8142.00000  -999.250     9.7519     .0244 -999.250    17.9531   164.0336  111.7669    4.9146    2.7130 
 8142.50000  -999.250     9.8074     .0221 -999.250    16.5201    74.2092   54.4577    4.8415    2.6911 
 8143.00000  -999.250     9.8754     .0166 -999.250    14.4172    65.4308   43.5278    4.7506    2.6565 
 8143.50000  -999.250     9.9721     .0105 -999.250    13.4596    67.8426   43.3397    4.7190    2.6198 
 8144.00000  -999.250    10.0459     .0026 -999.250    14.8015    85.1192   67.7540    4.7131    2.6071 
 8144.50000  -999.250    10.1197    -.0053 -999.250    17.2341   156.0354  132.6800    4.7306    2.6173 
 8145.00000  -999.250    10.1795    -.0114 -999.250    19.1298   210.4338  147.8822    4.8166    2.6211 
 8145.50000  -999.250    10.2420    -.0153 -999.250    18.4508   178.7399  129.2829    4.9173    2.6161 
 8146.00000  -999.250    10.2999    -.0157 -999.250    17.4086   154.0403  118.3529    4.8096    2.6179 
 8146.50000  -999.250    10.3539    -.0158 -999.250    17.4077   118.8200  105.1086    4.6232    2.6256 
 8147.00000  -999.250    10.3969    -.0150 -999.250    16.6850    84.5260   67.8633    4.5164    2.6242 
 8147.50000  -999.250    10.4468    -.0098 -999.250    15.5589    61.1562   51.7655    4.6408    2.6180 
 8148.00000  -999.250    10.4986    -.0011 -999.250    17.1493    47.0767   39.5889    4.8852    2.6066 
 8148.50000  -999.250    10.5443     .0059 -999.250    18.4057    37.9817   30.4080    5.1069    2.5860 
 8149.00000  -999.250    10.5906     .0128 -999.250    15.6245    33.9611   29.2500    5.2411    2.5791 
 8149.50000  -999.250    10.6623     .0266 -999.250    14.4763    31.0529   25.5292    5.3612    2.5745 
 8150.00000  -999.250    10.7080     .0285 -999.250    13.9195    34.0717   25.7707    5.4448    2.5570 
 8150.50000  -999.250    10.7307     .0269 -999.250    11.7289    40.8014   29.6994    5.5190    2.5347 
 8151.00000  -999.250    10.7458     .0246 -999.250    11.2857    55.8286   40.2609    5.5493    2.5365 
 8151.50000  -999.250    10.7093     .0224 -999.250    14.0164    81.0702   60.1450    5.4617    2.5687 
 8152.00000  -999.250    10.6780     .0216 -999.250    15.8650   106.4166   81.8148    5.2232    2.6057 
 8152.50000  -999.250    10.6720     .0194 -999.250    13.4570   123.0001   78.6765    4.9760    2.6073 
 8153.00000  -999.250    10.7222     .0150 -999.250    10.9172   134.2987   74.7028    4.7051    2.5572 
 8153.50000  -999.250    10.6682     .0144 -999.250    10.7270   179.5042   93.3904    4.5421    2.5253 
 8154.00000  -999.250    10.3476     .0149 -999.250    13.9819   327.7910  161.6700    4.5534    2.5365 
 8154.50000  -999.250     9.8203     .0167 -999.250    17.5506   737.7876  404.9388    4.5708    2.5942 
 8155.00000  -999.250     9.6398     .0263 -999.250    20.0995  1493.0403  913.4034    4.4236    2.6503 
 8155.50000  -999.250     9.6236     .0369 -999.250    24.4894  2248.2930 1173.8330    4.1996    2.6854 
 8156.00000  -999.250     9.5605     .0364 -999.250    31.6430  1224.4503  988.6185    3.8751    2.6830 
 8156.50000  -999.250     9.5093     .0305 -999.250    31.0480   367.0302  516.2050    3.8113    2.6801 
 8157.00000  -999.250     9.5335     .0261 -999.250    24.9874   168.4459  118.9986    4.1665    2.6988 
 8157.50000  -999.250     9.5258     .0199 -999.250    24.8764   151.3013   98.8728    4.4239    2.7012 
 8158.00000  -999.250     9.5446     .0115 -999.250    27.6023   114.1351   93.8425    4.1767    2.6877 
 8158.50000  -999.250     9.5831     .0059 -999.250    29.2170    58.3176   46.8541    3.8270    2.6758 
 8159.00000  -999.250     9.6202     .0004 -999.250    30.6734    25.7564   24.8681    3.5995    2.6699 
